City,lat,Lng,Max Temp,Humidity,Cloudiness,Wind Speed,Country,Date
airai,-8.9266,125.4092,59.59,94,93,2.91,TL,1659789842
san lorenzo,-25.3333,-57.5333,58.14,94,100,8.05,PY,1659789843
cap malheureux,-19.9842,57.6142,72.46,70,4,7.0,MU,1659789844
punta arenas,-53.15,-70.9167,35.71,93,75,3.44,CL,1659789735
pouembout,-21.1333,164.9,71.55,92,10,2.35,NC,1659789845
puerto quijarro,-17.7833,-57.7667,83.08,47,100,3.67,BO,1659789846
albany,42.6001,-73.9662,78.39,84,74,2.68,US,1659789847
aborlan,9.4352,118.5492,78.87,93,100,4.12,PH,1659789848
naze,28.3667,129.4833,81.52,81,2,1.92,JP,1659789849
kapaa,22.0752,-159.319,73.72,92,40,6.91,US,1659789628
pakokku,21.3333,95.1,90.48,53,93,8.81,MM,1659789851
severo-kurilsk,50.6789,156.125,53.15,93,100,7.74,RU,1659789851
kavieng,-2.5744,150.7967,80.96,78,4,8.03,PG,1659789852
iskateley,67.6803,53.1512,82.09,47,69,15.14,RU,1659789853
ancud,-41.8697,-73.8203,41.23,76,100,8.63,CL,1659789855
tuktoyaktuk,69.4541,-133.0374,50.4,89,100,10.87,CA,1659789855
ushuaia,-54.8,-68.3,29.86,93,0,4.61,AR,1659789857
hermanus,-34.4187,19.2345,58.8,68,100,19.1,ZA,1659789858
yar-sale,66.8333,70.8333,67.24,56,85,15.84,RU,1659789859
nacala,-14.5428,40.6728,85.32,52,40,11.74,MZ,1659789859
geraldton,-28.7667,114.6,50.41,87,0,10.36,AU,1659789860
rikitea,-23.1203,-134.9692,68.09,68,100,18.9,PF,1659789862
dedza,-14.3779,34.3332,70.72,30,0,7.31,MW,1659789862
kaitangata,-46.2817,169.8464,44.69,89,72,6.62,NZ,1659789863
port macquarie,-31.4333,152.9167,52.11,68,0,7.76,AU,1659789764
erenhot,43.6475,111.9767,81.27,53,44,17.11,CN,1659789865
busselton,-33.65,115.3333,56.71,79,5,15.39,AU,1659789866
cape town,-33.9258,18.4232,69.12,67,20,23.02,ZA,1659789866
thompson,55.7435,-97.8558,44.76,100,20,5.75,CA,1659789867
vanimo,-2.6741,141.3028,77.85,83,100,3.49,PG,1659789868
upernavik,72.7868,-56.1549,41.16,89,76,7.56,GL,1659789869
yellowknife,62.456,-114.3525,55.92,71,75,15.01,CA,1659789624
nipawin,53.3668,-104.0009,48.24,100,0,6.91,CA,1659789870
hobart,-42.8794,147.3294,42.66,89,75,6.91,AU,1659789871
bengkulu,-3.8004,102.2655,78.06,78,0,3.33,ID,1659789872
puerto ayora,-0.7393,-90.3518,68.56,95,90,8.01,EC,1659789873
vardo,70.3705,31.1107,53.58,82,20,4.61,NO,1659789874
haines junction,60.7522,-137.5108,40.95,87,99,4.61,CA,1659789874
leningradskiy,69.3833,178.4167,35.38,95,97,3.31,RU,1659789875
khatanga,71.9667,102.5,63.9,67,39,6.33,RU,1659789876
dudinka,69.4058,86.1778,61.63,87,76,7.2,RU,1659789877
lom sak,16.7798,101.2422,75.92,95,100,2.15,TH,1659789878
korla,41.7597,86.1469,92.55,20,89,9.01,CN,1659789879
dikson,73.5069,80.5464,41.86,99,100,7.49,RU,1659789881
bambous virieux,-20.3428,57.7575,72.21,73,75,12.66,MU,1659789882
hervey bay,-25.2986,152.8535,64.02,94,89,1.01,AU,1659789716
encruzilhada,-15.5314,-40.9094,79.97,46,6,5.1,BR,1659789883
dothan,31.2232,-85.3905,80.1,89,0,1.01,US,1659789705
umm lajj,25.0213,37.2685,90.64,65,28,10.42,SA,1659789885
kruisfontein,-34.0033,24.7314,61.12,71,67,12.88,ZA,1659789886
kamloops,50.6665,-120.3192,51.57,79,0,4.61,CA,1659789887
caravelas,-17.7125,-39.2481,78.49,64,68,4.03,BR,1659789888
lorengau,-2.0226,147.2712,80.91,76,100,4.9,PG,1659789889
fairbanks,64.8378,-147.7164,51.1,90,100,6.91,US,1659789687
mahebourg,-20.4081,57.7,72.25,73,75,12.66,MU,1659789891
jamestown,42.097,-79.2353,75.52,72,20,5.75,US,1659789844
shitanjing,39.2342,106.3439,83.26,44,8,9.57,CN,1659789892
iqaluit,63.7506,-68.5145,42.53,79,100,3.44,CA,1659789893
fortuna,40.5982,-124.1573,60.93,91,100,0.0,US,1659789894
bluff,-46.6,168.3333,49.42,82,44,11.88,NZ,1659789894
havre,49.5833,0.3333,76.33,46,0,20.71,FR,1659789895
rosetta,31.4044,30.4164,82.92,57,0,11.41,EG,1659789896
atherton,53.5237,-2.4935,69.75,63,73,5.99,GB,1659789897
broome,42.2506,-75.833,75.85,92,0,5.75,US,1659789899
port lincoln,-34.7333,135.8667,52.03,76,6,11.12,AU,1659789899
georgetown,5.4112,100.3354,84.88,84,20,3.44,MY,1659789782
bayburt,40.2589,40.2278,80.42,34,0,12.93,TR,1659789901
norman wells,65.282,-126.8329,60.84,77,100,11.5,CA,1659789739
goundi,9.3627,17.366,87.93,57,84,3.83,TD,1659789902
lebu,-37.6167,-73.65,49.35,92,100,3.83,CL,1659789903
wicklow,53.0,-6.4167,61.65,58,100,6.89,IE,1659789904
boysun,38.2061,67.1986,85.5,17,0,3.15,UZ,1659789905
atuona,-9.8,-139.0333,76.8,78,43,19.28,PF,1659789906
touros,-5.1989,-35.4608,81.7,69,86,15.7,BR,1659789907
mataura,-46.1927,168.8643,43.75,88,100,2.37,NZ,1659789908
tura,25.5198,90.2201,75.67,97,78,0.83,IN,1659789909
pisco,-13.7,-76.2167,59.02,82,75,2.3,PE,1659789910
clyde river,70.4692,-68.5914,39.43,93,100,19.57,CA,1659789911
ola,59.5833,151.2833,55.15,93,17,5.57,RU,1659789911
sao joao da barra,-21.6403,-41.0511,73.49,68,100,12.86,BR,1659789912
zelino,41.9803,21.0642,92.5,21,9,5.35,MK,1659789913
antofagasta,-23.65,-70.4,52.88,67,0,5.88,CL,1659789734
luwuk,-0.9516,122.7875,76.1,89,100,3.53,ID,1659789915
cidreira,-30.1811,-50.2056,54.3,71,0,2.1,BR,1659789916
butaritari,3.0707,172.7902,82.09,75,97,14.56,KI,1659789917
north battleford,52.7834,-108.2847,43.41,100,0,5.75,CA,1659789918
palmer,42.1584,-72.3287,81.91,78,40,3.44,US,1659789919
cestas,44.7435,-0.6791,90.01,34,0,9.22,FR,1659789919
avarua,-21.2078,-159.775,73.45,73,75,11.5,CK,1659789921
kodiak,57.79,-152.4072,45.91,81,0,4.61,US,1659789646
prestea,5.4327,-2.1428,92.93,38,23,2.24,GH,1659789922
choix,26.7092,-108.3219,73.33,80,86,3.04,MX,1659789923
esperance,-33.8667,121.9,52.86,67,23,8.46,AU,1659789924
sobolevo,54.4299,31.8996,80.6,57,1,9.51,RU,1659789925
millau,44.0833,2.9167,86.13,28,5,7.83,FR,1659789926
toora-khem,52.4675,96.11,54.66,53,29,4.12,RU,1659789927
hithadhoo,-0.6,73.0833,82.94,73,62,14.05,MV,1659789928
winnemucca,40.973,-117.7357,64.45,88,20,8.05,US,1659789775
monchegorsk,67.9397,32.8739,61.29,95,100,1.54,RU,1659789930
taksimo,56.3444,114.8794,54.0,88,100,2.19,RU,1659789931
santa marta,11.2408,-74.199,78.85,89,100,4.61,CO,1659789693
arkhangelsk,64.5401,40.5433,84.31,45,40,8.95,RU,1659789820
sonson,5.7106,-75.3107,52.74,96,100,0.47,CO,1659789935
port elizabeth,-33.918,25.5701,64.69,78,20,18.99,ZA,1659789936
victoria,22.2855,114.1577,85.32,88,45,4.0,HK,1659789847
nome,64.5011,-165.4064,41.07,76,75,8.05,US,1659789675
rongcheng,30.634,117.8517,84.49,72,1,3.0,CN,1659789940
nokaneng,-19.6667,22.2667,89.19,15,0,2.84,BW,1659789941
hilo,19.7297,-155.09,76.28,95,75,1.99,US,1659789942
gladstone,-23.85,151.25,64.78,88,100,1.14,AU,1659789943
belyy yar,53.6039,91.3903,73.29,39,0,8.95,RU,1659789944
port blair,11.6667,92.75,82.44,83,100,14.97,IN,1659789946
araouane,18.9048,-3.5265,100.33,28,48,5.95,ML,1659789947
ribeira grande,38.5167,-28.7,79.2,73,20,9.22,PT,1659789948
cayenne,4.9333,-52.3333,88.09,18,75,6.91,GF,1659789949
qaanaaq,77.484,-69.3632,39.99,59,100,4.72,GL,1659789950
changji,44.0167,87.3167,90.39,22,0,6.71,CN,1659789951
flinders,-34.5833,150.8552,56.17,67,16,11.01,AU,1659789952
east london,-33.0153,27.9116,67.14,59,0,11.5,ZA,1659789952
mujiayingzi,42.1167,118.7833,78.89,66,100,7.18,CN,1659789953
nove hrady,48.7896,14.7784,63.5,86,83,5.64,CZ,1659789954
muros,42.7762,-9.0603,87.1,39,35,5.77,ES,1659789955
doctor juan leon mallorquin,-25.4,-55.2667,53.33,94,100,4.09,PY,1659789956
saint-augustin,51.226,-58.6502,69.39,39,31,12.44,CA,1659789957
codrington,-38.2667,141.9667,49.6,85,100,7.96,AU,1659789958
coahuayana,18.7333,-103.6833,75.51,91,89,4.03,MX,1659789959
zlobin,45.2924,14.6541,88.9,26,20,13.8,HR,1659789960
sulangan,11.1373,123.7228,79.74,83,100,10.27,PH,1659789961
hambantota,6.1241,81.1185,84.54,70,100,9.22,LK,1659789961
avera,33.194,-82.5271,83.55,82,87,4.07,US,1659789962
guerrero negro,27.9769,-114.0611,69.64,93,100,10.36,MX,1659789937
vung tau,10.346,107.0843,79.83,83,100,13.89,VN,1659789886
nikolskoye,59.7035,30.7861,82.29,59,100,10.67,RU,1659789964
pilar,-9.5972,-35.9567,76.93,86,92,6.22,BR,1659789965
provideniya,64.3833,-173.3,47.52,85,100,6.13,RU,1659789966
albanel,48.8832,-72.4487,64.54,82,50,3.44,CA,1659789967
katsuura,35.1333,140.3,75.45,82,56,5.77,JP,1659789968
kahului,20.8947,-156.47,77.85,73,0,5.01,US,1659789969
morgan city,29.6994,-91.2068,78.03,90,8,3.96,US,1659789969
bend,44.0582,-121.3153,56.48,58,0,0.0,US,1659789970
tuatapere,-46.1333,167.6833,46.89,86,75,4.9,NZ,1659789971
mawlaik,23.6333,94.4167,77.77,97,6,0.89,MM,1659789972
shintomi,32.0785,131.4723,79.92,86,6,3.4,JP,1659789973
orleans,30.0335,-89.9501,81.99,83,0,0.0,US,1659789924
ust-koksa,50.2696,85.6108,66.09,60,7,4.45,RU,1659789976
barrow,71.2906,-156.7887,33.85,98,100,17.63,US,1659789977
praya,14.9215,-23.5087,84.74,65,75,16.11,CV,1659789750
nicoya,10.1483,-85.452,75.31,89,17,4.94,CR,1659789978
arraial do cabo,-22.9661,-42.0278,73.26,68,75,9.22,BR,1659789850
raudeberg,61.9875,5.1352,52.47,63,100,16.69,NO,1659789979
hay river,60.8156,-115.7999,57.18,67,40,9.22,CA,1659789739
dumai,1.6833,101.45,77.61,81,91,2.42,ID,1659789982
tyukalinsk,55.8732,72.1967,76.08,53,63,5.3,RU,1659789982
turukhansk,65.8167,87.9833,68.05,54,16,5.64,RU,1659789983
terra roxa,-23.8557,-50.0314,59.81,74,99,7.81,BR,1659789986
vaini,-21.2,-175.2,75.36,100,100,8.05,TO,1659789986
jinchang,38.4953,102.1739,84.47,31,100,6.49,CN,1659789987
zyryanovsk,49.7386,84.2719,80.47,33,6,8.16,KZ,1659789988
yulara,-25.2406,130.9889,53.83,29,0,8.23,AU,1659789989
ordynskoye,54.3656,81.8994,73.2,48,66,6.62,RU,1659789990
port alfred,-33.5906,26.891,64.18,72,7,7.0,ZA,1659789991
pitimbu,-7.4706,-34.8086,79.39,69,42,12.86,BR,1659789992
oktyabrskiy,54.4815,53.471,81.01,38,2,6.67,RU,1659789993
pochutla,15.7432,-96.4661,75.02,80,96,4.41,MX,1659789994
buchanan,5.8808,-10.0467,78.85,73,98,10.63,LR,1659789994
los llanos de aridane,28.6585,-17.9182,74.95,65,40,13.8,ES,1659789996
thurso,58.5927,-3.5259,59.25,87,100,14.36,GB,1659789927
tanout,14.9709,8.8879,94.73,34,91,11.48,NE,1659789998
gumdag,39.2061,54.5906,101.43,16,26,20.31,TM,1659789998
rosetown,51.5501,-108.0014,37.38,93,6,6.91,CA,1659789738
jacqueville,5.2052,-4.4146,76.53,68,10,8.05,CI,1659790000
sabang,5.8933,95.3214,82.72,75,98,18.66,ID,1659790001
yevpatoriya,45.1972,33.3558,87.66,44,34,5.61,UA,1659790002
podyuga,61.095,40.8647,83.91,38,20,8.55,RU,1659790003
faya,18.3851,42.4509,82.51,45,94,2.57,SA,1659790004
saint-pierre,-21.3393,55.4781,74.88,67,75,5.75,RE,1659790005
kysyl-syr,63.8986,122.7617,54.14,86,100,3.11,RU,1659790006
yabluniv,48.4042,24.9387,85.1,37,70,7.25,UA,1659790007
totness,5.8833,-56.3167,81.07,74,90,7.67,SR,1659790008
dingle,10.9995,122.6711,76.26,90,100,0.29,PH,1659790009
anadyr,64.75,177.4833,50.5,81,0,4.47,RU,1659790009
ilulissat,69.2167,-51.1,44.62,93,75,5.75,GL,1659790010
hasaki,35.7333,140.8333,73.8,78,100,5.48,JP,1659790011
rorvik,64.8621,11.2373,54.12,77,93,19.98,NO,1659790012
koslan,63.4564,48.8989,84.06,34,5,8.1,RU,1659790013
torbay,47.6666,-52.7314,72.75,83,75,9.22,CA,1659789796
arona,28.0996,-16.681,78.03,57,0,23.02,ES,1659790014
plymouth,41.8334,-70.8328,82.2,82,20,5.75,US,1659789911
balkhash,46.844,74.9804,81.21,29,0,8.95,KZ,1659790016
vao,-22.6667,167.4833,73.26,85,34,11.1,NC,1659790016
tasiilaq,65.6145,-37.6368,46.56,77,100,11.23,GL,1659790017
colac,-38.3333,143.5833,48.16,94,72,3.42,AU,1659790018
clonmel,52.355,-7.7039,69.51,54,100,5.66,IE,1659789992
makakilo city,21.3469,-158.0858,75.52,79,20,5.75,US,1659790020
saint george,37.1041,-113.5841,76.95,62,0,6.91,US,1659790020
madimba,-10.4,40.3333,80.6,50,22,16.35,TZ,1659790021
san pedro,14.35,121.0167,80.35,91,100,2.3,PH,1659790022
mar del plata,-38.0023,-57.5575,47.08,81,0,3.44,AR,1659789988
chokurdakh,70.6333,147.9167,41.76,84,100,10.51,RU,1659790024
bahia blanca,-38.7196,-62.2724,45.16,69,100,6.62,AR,1659789986
alofi,-19.0595,-169.9187,73.29,94,100,6.91,NU,1659790025
aketi,2.7388,23.7833,88.83,51,100,2.44,CD,1659790026
pevek,69.7008,170.3133,36.41,99,100,9.26,RU,1659790027
mahibadhoo,3.7833,72.9667,82.2,79,100,15.26,MV,1659790028
hovd,48.0056,91.6419,69.15,34,100,7.23,MN,1659790029
hami,42.8,93.45,94.17,17,17,3.67,CN,1659790030
san jeronimo,-11.9472,-75.2829,46.53,87,99,1.72,PE,1659790031
banda aceh,5.5577,95.3222,81.3,75,98,11.65,ID,1659790032
la ronge,55.1001,-105.2842,50.25,87,20,4.61,CA,1659790033
tecpan,14.7623,-90.9947,55.89,94,70,4.45,GT,1659790034
half moon bay,37.4636,-122.4286,65.05,88,100,3.44,US,1659789906
tukrah,32.5341,20.5791,85.8,56,0,13.2,LY,1659790035
gat,31.61,34.7642,96.4,17,0,13.96,IL,1659790036
medea,36.2642,2.7539,93.94,14,0,13.4,DZ,1659790037
potosi,-19.5836,-65.7531,40.69,40,16,15.17,BO,1659790033
linjiang,41.8069,126.9078,71.85,83,84,2.19,CN,1659790039
kampong thum,12.7111,104.8887,76.17,87,100,0.58,KH,1659790040
verkhnetulomskiy,68.6073,31.7962,55.53,98,100,3.98,RU,1659790041
olafsvik,64.8945,-23.7142,53.4,92,95,4.88,IS,1659790042
saskylakh,71.9167,114.0833,56.32,50,100,8.1,RU,1659790043
gamboula,4.1178,15.1393,83.95,57,99,3.53,CF,1659790045
angouleme,45.65,0.15,84.2,29,0,17.27,FR,1659790046
cherskiy,68.75,161.3,48.76,68,20,5.35,RU,1659790047
nikki,9.9401,3.2108,87.33,49,86,2.55,BJ,1659790049
springdale,36.1867,-94.1288,79.5,86,0,8.05,US,1659790050
longyearbyen,78.2186,15.6401,49.84,76,75,11.5,SJ,1659790051
san cristobal,7.7669,-72.225,68.18,84,100,4.09,VE,1659790052
pangnirtung,66.1451,-65.7125,45.72,82,97,1.9,CA,1659790053
vila velha,-20.3297,-40.2925,76.95,76,75,12.66,BR,1659790054
bredasdorp,-34.5322,20.0403,57.49,63,100,14.32,ZA,1659790054
tiksi,71.6872,128.8694,40.21,84,100,15.46,RU,1659790055
omboue,-1.5746,9.2618,79.18,62,37,13.04,GA,1659790056
saint-georges,12.0564,-61.7485,80.28,83,75,9.22,GD,1659789906
nouadhibou,20.931,-17.0347,80.58,74,6,12.66,MR,1659790058
pemangkat,1.1667,108.9667,79.79,79,99,8.63,ID,1659790059
soure,-0.7167,-48.5233,81.57,71,89,12.15,BR,1659790060
new norfolk,-42.7826,147.0587,42.3,69,100,3.0,AU,1659790061
tezu,27.9167,96.1667,80.91,94,100,3.78,IN,1659790062
cheremukhovo,60.3484,59.9851,72.61,64,100,2.01,RU,1659790063
carnarvon,-24.8667,113.6333,65.17,53,0,14.92,AU,1659790065
mao,39.8885,4.2658,91.96,43,0,17.27,ES,1659790031
roald,62.5833,6.1333,56.75,87,75,17.27,NO,1659790066
at-bashi,41.1702,75.8106,74.91,27,7,3.24,KG,1659790067
sitka,57.0531,-135.33,57.09,94,100,9.22,US,1659789834
finnsnes,69.2296,17.9811,66.81,47,66,8.14,NO,1659790069
amvrosiyivka,47.7935,38.4777,91.92,20,13,13.53,UA,1659790070
conceicao do araguaia,-8.2578,-49.2647,86.2,51,83,4.52,BR,1659790070
pangody,65.85,74.4859,67.42,59,55,15.52,RU,1659790071
amot,59.5714,7.9877,60.76,57,39,8.99,NO,1659790072
ugoofaaru,5.6667,73.0,80.82,84,100,18.1,MV,1659790073
mhango,-3.2833,32.85,85.41,24,96,6.17,TZ,1659790074
goya,-29.14,-59.2626,48.78,77,100,6.82,AR,1659790075
san policarpo,12.1791,125.5072,78.53,84,100,4.5,PH,1659790075
rawah,34.4816,41.9093,113.63,12,0,14.18,IQ,1659790076
allahabad,25.45,81.85,92.79,51,100,4.9,IN,1659790077
ahuimanu,21.4447,-157.8378,76.71,89,20,5.75,US,1659790078
djenne,13.9061,-4.5533,91.94,45,21,5.93,ML,1659790080
castro,-24.7911,-50.0119,59.31,77,93,8.21,BR,1659790081
puerto carreno,6.189,-67.4859,78.78,89,75,4.61,CO,1659790082
chute-aux-outardes,49.1168,-68.399,60.78,77,0,2.3,CA,1659790083
ponta do sol,32.6667,-17.1,81.72,69,0,3.02,PT,1659790083
lloydminster,53.2835,-110.0016,46.62,87,0,6.91,CA,1659790084
luoyang,34.6836,112.4536,90.21,54,2,12.62,CN,1659790086
acapulco,16.8634,-99.8901,76.35,85,100,4.34,MX,1659790087
izumo,35.3667,132.7667,82.35,93,73,4.79,JP,1659790087
huarmey,-10.0681,-78.1522,62.31,85,100,6.04,PE,1659790088
uch,45.3192,-0.9345,88.05,22,0,10.87,FR,1659790089
manjacaze,-24.7117,33.8828,85.14,37,32,4.68,MZ,1659790090
sechura,-5.5569,-80.8222,63.25,82,100,10.6,PE,1659790091
barcelos,41.5388,-8.6151,83.84,53,7,8.7,PT,1659789829
luderitz,-26.6481,15.1594,71.78,38,100,13.33,NA,1659790092
aklavik,68.2191,-135.0107,58.84,71,100,15.7,CA,1659790093
saint-philippe,-21.3585,55.7679,74.79,67,36,6.24,RE,1659790094
mindelo,16.8901,-24.9804,80.15,74,75,14.97,CV,1659790095
bowen,-20.0167,148.2333,69.49,93,29,6.08,AU,1659790096
lashio,22.9333,97.75,69.96,98,73,1.5,MM,1659790098
comodoro rivadavia,-45.8667,-67.5,37.26,93,75,8.05,AR,1659789901
dalvik,65.9702,-18.5286,57.13,71,100,2.35,IS,1659790100
karasuyama,36.65,140.15,70.72,85,100,3.67,JP,1659790101
xining,36.6167,101.7667,70.65,69,98,5.14,CN,1659790059
retz,48.7494,15.9624,72.68,72,89,12.66,AT,1659790102
ayaviri,-14.8864,-70.5889,39.97,69,93,4.0,PE,1659790103
basoko,1.2391,23.616,89.71,48,100,3.53,CD,1659790104
mackay,-21.15,149.2,66.69,92,10,5.82,AU,1659790105
mount pleasant,32.7941,-79.8626,84.18,87,0,3.44,US,1659789858
kalabo,-14.97,22.6814,88.14,14,0,9.55,ZM,1659790107
nakamura,32.9833,132.9333,77.5,95,0,2.17,JP,1659790108
taltal,-25.4,-70.4833,56.46,68,0,1.74,CL,1659790025
souillac,-20.5167,57.5167,71.98,73,75,12.66,MU,1659790109
merauke,-8.4667,140.3333,76.98,90,100,10.71,ID,1659790111
cache creek,50.8101,-121.3246,46.9,80,0,2.44,CA,1659790111
wichian buri,15.6578,101.106,77.95,89,100,5.53,TH,1659790113
havelock,34.8791,-76.9013,87.98,84,0,1.99,US,1659790114
honiara,-9.4333,159.95,77.25,87,48,5.12,SB,1659790114
scottsbluff,41.8666,-103.6672,65.55,75,75,6.91,US,1659790071
coquimbo,-29.9533,-71.3436,49.73,93,75,4.61,CL,1659790116
acarau,-2.8856,-40.12,83.48,57,6,16.98,BR,1659790117
kazanlak,42.6167,25.4,88.18,40,80,8.59,BG,1659790118
qui nhon,13.7667,109.2333,80.8,81,100,3.85,VN,1659790119
chuy,-33.6971,-53.4616,49.08,78,97,1.25,UY,1659790119
cedar city,37.6775,-113.0619,64.4,72,0,3.44,US,1659789824
college,64.8569,-147.8028,51.08,90,100,6.91,US,1659790122
talnakh,69.4865,88.3972,61.21,89,100,2.86,RU,1659790122
vryburg,-26.9566,24.7284,74.62,15,13,11.56,ZA,1659790123
pekan,3.4836,103.3996,84.31,80,99,2.57,MY,1659790124
arequipa,-16.3989,-71.535,51.87,22,0,9.22,PE,1659789827
kenai,60.5544,-151.2583,53.1,83,0,11.5,US,1659790125
ambon,-3.6954,128.1814,78.24,15,40,3.44,ID,1659790126
lagoa,39.05,-27.9833,74.66,81,16,8.12,PT,1659790127
baruun-urt,46.6806,113.2792,60.35,90,96,11.25,MN,1659790128
havoysund,70.9963,24.6622,62.83,61,100,12.19,NO,1659790129
kotido,2.9806,34.1331,78.04,52,100,7.4,UG,1659790130
botelhos,-21.6333,-46.395,72.52,49,16,7.11,BR,1659790131
synya,65.3718,58.0387,81.36,38,7,3.98,RU,1659790132
ixtapa,20.7,-105.2,78.03,83,75,3.44,MX,1659789971
aguimes,27.9054,-15.4461,78.66,65,20,31.07,ES,1659790134
nemuro,43.3236,145.575,59.95,86,100,8.72,JP,1659790135
pelagiada,45.2064,42.0236,85.55,34,40,15.66,RU,1659790136
borkenes,68.774,16.1739,60.58,78,100,13.0,NO,1659790137
imeni poliny osipenko,52.4201,136.4853,61.88,98,100,3.71,RU,1659790137
sayyan,15.1718,44.3244,62.8,70,100,4.07,YE,1659790138
davila,18.4726,120.5763,84.18,81,85,6.2,PH,1659790139
arlit,18.7369,7.3853,102.81,22,0,6.87,NE,1659790140
tucuman,-26.8241,-65.2226,48.2,87,20,2.3,AR,1659790141
warrington,53.3925,-2.5802,70.92,58,40,13.8,GB,1659789855
kathmandu,27.7167,85.3167,73.62,94,75,4.61,NP,1659789978
krasnoselkup,65.7,82.4667,66.79,63,43,8.9,RU,1659790143
libreville,0.3925,9.4537,82.42,61,20,5.75,GA,1659790144
kidal,18.4411,1.4078,100.0,26,90,7.14,ML,1659790144
vilyuysk,63.7553,121.6247,53.4,87,100,3.94,RU,1659790145
nenjiang,49.1833,125.2167,70.77,78,100,9.28,CN,1659790146
luba,3.4568,8.5547,82.29,92,84,8.3,GQ,1659790147
jumla,29.2747,82.1838,65.14,95,98,3.0,NP,1659790149
saint anthony,45.0205,-93.218,75.13,86,0,8.05,US,1659790150
numan,9.4667,12.0333,90.19,48,67,7.09,NG,1659790151
assare,-6.8744,-39.875,84.52,37,99,8.55,BR,1659790152
waitati,-45.75,170.5667,50.81,70,96,4.65,NZ,1659790153
kangaatsiaq,68.3065,-53.4641,40.12,94,100,4.68,GL,1659790154
havre-saint-pierre,50.2334,-63.5986,61.16,72,0,4.61,CA,1659790154
puerto colombia,10.9878,-74.9547,78.89,84,100,8.32,CO,1659790155
nanortalik,60.1432,-45.2371,44.17,98,100,10.42,GL,1659790156
narsaq,60.9167,-46.05,48.42,99,100,5.77,GL,1659790157
necochea,-38.5473,-58.7368,47.46,65,100,9.22,AR,1659790158
kandi,11.1342,2.9386,87.37,55,100,2.91,BJ,1659790159
bonthe,7.5264,-12.505,80.44,75,100,12.59,SL,1659790159
kalmunai,7.4167,81.8167,86.67,52,100,7.72,LK,1659790160
sur,22.5667,59.5289,86.83,70,90,5.99,OM,1659790161
mwinilunga,-11.7358,24.4293,83.93,16,0,8.93,ZM,1659790162
xam nua,20.4197,104.0439,68.36,100,100,1.95,LA,1659790163
opuwo,-18.0607,13.84,85.64,15,0,8.28,NA,1659790164
milove,49.3787,40.1302,91.29,18,20,10.69,UA,1659790165
kloulklubed,7.0419,134.2556,75.7,81,100,11.65,PW,1659790166
novoanninskiy,50.5287,42.6747,89.56,29,6,14.67,RU,1659790167
smithers,54.7804,-127.1743,55.72,94,100,2.3,CA,1659789910
jaisalmer,26.9147,70.9181,93.92,43,91,7.29,IN,1659790169
zhigansk,66.7697,123.3711,50.4,99,100,7.45,RU,1659790171
khorinsk,52.1657,109.7726,48.99,69,6,6.71,RU,1659790172
rio grande,-32.035,-52.0986,51.91,78,10,6.08,BR,1659790129
cabra,37.4725,-4.4421,96.75,16,0,11.36,ES,1659790174
zhanaozen,43.3,52.8,87.08,22,100,2.82,KZ,1659790175
boca do acre,-8.7522,-67.3978,76.89,84,100,0.47,BR,1659790175
cumbernauld,55.9469,-3.9905,64.87,74,100,11.74,GB,1659790176
novoagansk,61.9449,76.6625,70.92,57,100,6.44,RU,1659790177
nepa nagar,21.4667,76.4,82.26,82,100,3.91,IN,1659790178
dunedin,-45.8742,170.5036,50.81,70,100,1.99,NZ,1659789924
cabo san lucas,22.8909,-109.9124,85.51,65,40,4.61,MX,1659790179
manoel urbano,-8.8389,-69.2597,74.68,89,100,1.34,BR,1659790181
san jose,37.3394,-121.895,65.88,80,75,6.91,US,1659790037
asfi,32.2994,-9.2372,77.97,64,3,20.71,MA,1659790182
liverpool,53.4106,-2.9779,69.15,57,40,13.8,GB,1659790169
lata,40.1629,-8.3327,94.19,22,0,9.64,PT,1659790184
nha trang,12.25,109.1833,80.6,85,100,3.53,VN,1659789954
vestmannaeyjar,63.4427,-20.2734,54.59,94,40,6.91,IS,1659790185
ayan,56.45,138.1667,54.52,98,100,18.57,RU,1659790186
aksarka,66.5606,67.7975,70.75,46,55,14.9,RU,1659790187
high level,58.5169,-117.136,53.71,87,0,5.75,CA,1659789923
ejura,7.3856,-1.3562,87.84,51,43,1.43,GH,1659790188
abu dhabi,24.4667,54.3667,105.91,46,0,10.36,AE,1659790117
saldanha,-33.0117,17.9442,71.65,71,0,17.38,ZA,1659790190
alegrete,-29.7831,-55.7919,49.28,82,100,15.88,BR,1659790190
lompoc,34.6391,-120.4579,61.79,88,100,14.0,US,1659790191
quatre cocos,-20.2078,57.7625,72.09,74,28,11.5,MU,1659790192
itacare,-14.2775,-38.9967,77.94,61,3,2.93,BR,1659790193
sakaiminato,35.55,133.2333,82.38,83,40,0.0,JP,1659790194
adrar,20.5022,-10.0711,105.15,17,96,14.34,MR,1659790195
namwala,-15.7504,26.4384,83.91,16,0,8.55,ZM,1659790195
verkhnevilyuysk,63.4453,120.3167,52.79,85,100,4.45,RU,1659790196
todos santos,23.45,-110.2167,78.04,91,79,4.56,MX,1659790197
ihosy,-22.4,46.1167,79.05,20,4,3.47,MG,1659790198
estelle,29.8458,-90.1067,82.38,85,0,1.99,US,1659790199
eureka,40.8021,-124.1637,61.2,90,62,1.01,US,1659790199
paciran,-6.8767,112.3761,79.81,72,92,2.21,ID,1659790200
kyaukse,21.6,96.1333,86.05,63,53,5.48,MM,1659790201
wamba,8.9333,8.6,81.23,70,94,4.72,NG,1659790202
alpena,45.0617,-83.4327,78.19,91,0,1.01,US,1659790165
andenes,69.3143,16.1194,59.94,67,0,13.8,NO,1659790203
khandyga,62.6667,135.6,64.76,67,100,1.28,RU,1659790204
sinnamary,5.3833,-52.95,82.78,67,8,7.29,GF,1659790205
fukue,32.6881,128.8419,82.85,86,3,7.58,JP,1659790206
lieksa,63.3167,30.0167,69.8,84,100,14.18,FI,1659790207
luanda,-8.8368,13.2343,71.24,71,2,12.91,AO,1659790145
analipsis,35.3167,25.5667,86.41,61,0,14.32,GR,1659790208
chimbote,-9.0853,-78.5783,62.2,84,97,6.55,PE,1659790209
cartagena del chaira,1.3349,-74.8429,70.2,99,100,1.72,CO,1659790210
nishihara,26.1842,127.7558,83.48,82,75,5.75,JP,1659790211
peoria,40.7667,-89.7668,77.86,93,0,3.44,US,1659790212
faanui,-16.4833,-151.75,77.23,78,49,24.2,PF,1659790212
kapit,2.0167,112.9333,74.91,96,100,0.83,MY,1659790213
santiago,-33.4569,-70.6483,50.85,85,75,3.44,CL,1659789957
kaseda,31.4167,130.3167,82.67,84,10,3.91,JP,1659790215
portland,45.5234,-122.6762,60.94,85,0,5.75,US,1659790030
morada nova,-5.1067,-38.3725,85.01,44,11,9.73,BR,1659790216
marzuq,14.4,46.4667,90.54,35,87,6.69,YE,1659790217
osakarovka,50.565,72.5692,75.67,29,100,13.96,KZ,1659790218
mafra,-26.1114,-49.8053,58.78,69,72,4.99,BR,1659790219
vila franca do campo,37.7167,-25.4333,75.61,76,49,10.16,PT,1659790220
asau,46.4333,26.4,83.32,48,100,4.68,RO,1659790220
port hedland,-20.3167,118.5667,62.65,72,0,5.75,AU,1659790221
okitipupa,6.5047,4.7839,83.34,61,95,6.31,NG,1659790222
yulin,22.6333,110.15,78.21,91,100,3.67,CN,1659790223
ust-maya,60.4167,134.5333,61.11,70,85,14.12,RU,1659790224
rocha,-34.4833,-54.3333,49.8,64,100,1.45,UY,1659790225
garissa,-0.4536,39.6401,89.85,29,80,22.21,KE,1659790226
byron bay,-28.65,153.6167,55.36,60,0,11.16,AU,1659790201
durango,24.8333,-104.8333,61.84,69,9,1.74,MX,1659789985
tarko-sale,64.9225,77.785,68.0,64,78,13.06,RU,1659790228
greenwood,34.1668,-82.1165,78.28,57,75,0.0,US,1659790001
kempele,64.9131,25.5034,66.22,94,100,6.91,FI,1659790230
bryansk,53.2875,34.3806,86.56,45,0,8.95,RU,1659790230
mount gambier,-37.8333,140.7667,45.93,94,76,6.44,AU,1659790231
bilibino,68.0546,166.4372,45.19,73,80,2.57,RU,1659790232
tessalit,20.1986,1.0114,103.8,20,58,10.42,ML,1659790233
bathsheba,13.2167,-59.5167,84.06,92,40,16.11,BB,1659790234
eregli,37.5133,34.0467,96.91,17,0,11.21,TR,1659790235
nyurba,63.2842,118.3319,51.17,85,100,4.92,RU,1659790235
mount isa,-20.7333,139.5,67.77,24,75,11.5,AU,1659790236
coihaique,-45.5752,-72.0662,32.61,86,75,3.44,CL,1659790089
abay,49.6311,72.8539,75.58,24,15,16.24,KZ,1659790238
areosa,41.7178,-8.8571,73.47,71,9,5.93,PT,1659790239
puerto leguizamo,-0.1934,-74.7819,72.7,92,97,2.3,CO,1659790239
njombe,-9.3333,34.7667,67.64,38,84,9.8,TZ,1659790240
shimoda,34.6667,138.95,75.11,87,78,5.77,JP,1659790241
troitsko-pechorsk,62.7084,56.1964,83.64,42,99,2.51,RU,1659790242
bubaque,11.2833,-15.8333,80.26,77,100,7.31,GW,1659790243
vitim,59.4511,112.5578,51.35,92,96,4.56,RU,1659790243
altay,47.8667,88.1167,76.59,29,26,8.72,CN,1659790244
san ramon,37.7799,-121.978,63.28,84,100,9.22,US,1659790245
yerbogachen,61.2767,108.0108,47.89,95,100,8.75,RU,1659790246
belmonte,-15.8631,-38.8828,78.84,58,10,5.75,BR,1659790247
muti,7.2758,122.28,76.73,84,100,2.55,PH,1659790248
naryan-mar,67.6713,53.087,82.22,47,68,15.1,RU,1659790248
mehamn,71.0357,27.8492,62.55,42,20,10.36,NO,1659790249
saint-francois,46.4154,3.9054,84.67,34,0,6.91,FR,1659790250
kavaratti,10.5669,72.642,80.31,86,44,21.39,IN,1659790251
klaksvik,62.2266,-6.589,52.72,98,100,20.29,FO,1659790252
londa,15.4691,74.5191,72.73,98,100,11.12,IN,1659790252
beatrice,40.2681,-96.747,80.69,69,0,10.36,US,1659790253
ambunti,-4.2365,142.8448,74.88,90,98,2.59,PG,1659790254
ryotsu,38.0833,138.4333,79.0,85,11,3.29,JP,1659790255
bereda,43.2686,-7.5406,78.13,49,84,7.45,ES,1659790256
cockburn town,21.4612,-71.1419,82.36,69,40,11.5,TC,1659790257
mezen,65.8522,44.24,85.32,39,0,10.54,RU,1659790257
den helder,52.9599,4.7593,70.99,56,100,10.0,NL,1659790022
bela,25.9333,81.9833,91.29,57,100,2.42,IN,1659790259
ostrovnoy,68.0531,39.5131,73.4,62,100,23.0,RU,1659790260
bitung,1.4451,125.1824,77.85,86,100,10.29,ID,1659790261
ampanihy,-24.7,44.75,77.83,40,16,12.91,MG,1659790262
caetite,-14.0694,-42.475,78.12,47,5,10.16,BR,1659790263
gariadhar,21.5333,71.5833,86.16,72,21,6.13,IN,1659790265
champerico,14.3,-91.9167,75.74,86,83,2.98,GT,1659790265
brae,60.3964,-1.353,52.68,93,100,14.41,GB,1659790266
katangli,51.7102,143.2326,53.76,98,100,15.14,RU,1659790267
northam,51.0333,-4.2167,69.66,47,21,11.83,GB,1659790268
sao filipe,14.8961,-24.4956,77.85,80,90,4.29,CV,1659790269
okhotsk,59.3833,143.3,56.32,92,100,16.44,RU,1659790269
magistralnyy,56.1725,107.4458,51.12,92,100,7.67,RU,1659790270
westport,41.1415,-73.3579,83.98,86,0,9.22,US,1659790271
rexburg,43.826,-111.7897,63.91,88,100,0.0,US,1659790023
meulaboh,4.1363,96.1285,79.81,73,88,0.16,ID,1659790272
khilok,51.3674,110.4676,51.19,64,37,8.84,RU,1659790273
ajdabiya,30.7554,20.2263,88.07,42,0,16.22,LY,1659790274
margate,51.3813,1.3862,72.1,59,6,5.99,GB,1659790275
sosnovo-ozerskoye,52.5249,111.5418,46.54,69,8,11.03,RU,1659790276
uhlove,44.8215,33.6045,81.37,60,20,13.53,UA,1659790277
leh,34.1667,77.5833,71.19,38,67,7.61,IN,1659790277
yarmouth,41.7057,-70.2286,82.96,85,20,11.5,US,1659790278
erzin,36.9559,36.2,87.89,60,0,11.56,TR,1659790279
daru,-9.0763,143.2092,77.65,91,61,11.77,PG,1659790280
bandarbeyla,9.4942,50.8122,84.58,57,100,29.66,SO,1659790281
khor,47.8861,134.9464,70.97,82,100,2.64,RU,1659790281
rosarito,32.3333,-117.0333,68.95,86,29,9.04,MX,1659790282
praia da vitoria,38.7333,-27.0667,74.75,100,75,16.91,PT,1659790283
porto novo,6.4965,2.6036,80.42,63,76,11.43,BJ,1659790284
shache,38.4167,77.2406,71.71,56,97,10.49,CN,1659790285
angoche,-16.2325,39.9086,77.56,61,0,11.32,MZ,1659790286
taywarah,33.35,64.4167,78.67,11,2,5.14,AF,1659790287
yeppoon,-23.1333,150.7333,64.18,94,2,4.45,AU,1659790288
aykhal,66.0,111.5,46.27,93,100,24.87,RU,1659790289
kulhudhuffushi,6.6221,73.07,80.49,85,56,17.54,MV,1659790289
yokadouma,3.5167,15.05,82.92,61,100,3.06,CM,1659790290
chahal,15.75,-89.5667,71.4,99,100,0.89,GT,1659790291
aksehir,38.3575,31.4164,90.57,26,56,7.16,TR,1659790292
srednekolymsk,67.45,153.6833,54.95,74,100,6.58,RU,1659790293
chiesanuova,43.9045,12.4214,95.16,35,0,9.22,SM,1659790294
sungaipenuh,-2.0833,101.3833,64.22,98,37,0.29,ID,1659790294
skjervoy,70.0311,20.9714,62.6,68,6,6.64,NO,1659790295
lyngseidet,69.5763,20.2189,62.6,60,100,5.37,NO,1659790296
itaituba,-4.2761,-55.9836,82.56,83,7,0.0,BR,1659790297
thinadhoo,0.5333,72.9333,82.96,73,100,13.0,MV,1659790298
chernyshevskiy,63.0128,112.4714,47.07,97,100,7.05,RU,1659790298
sambava,-14.2667,50.1667,74.07,70,36,12.77,MG,1659790299
erdenet,49.0333,104.0833,49.46,84,87,4.81,MN,1659790300
trairi,-3.2778,-39.2689,84.47,48,6,13.44,BR,1659790053
bom jardim,-7.7958,-35.5872,77.09,66,68,11.99,BR,1659790302
banjar,-8.19,114.9675,75.65,89,100,4.85,ID,1659790303
sorland,67.667,12.6934,53.46,80,89,16.64,NO,1659790304
richards bay,-28.783,32.0377,73.0,65,55,7.16,ZA,1659790305
poum,-20.2333,164.0167,74.98,84,26,11.48,NC,1659790305
kropotkin,45.4375,40.5756,89.37,27,70,12.88,RU,1659790306
illela,13.7292,5.2975,92.35,42,83,7.27,NG,1659790307
baykit,61.67,96.37,58.23,69,100,3.2,RU,1659790308
cabadiangan,9.7531,122.4739,77.85,88,100,2.73,PH,1659790309
leon,21.1167,-101.6667,57.04,85,4,3.36,MX,1659790309
huty,50.1332,35.3439,86.88,35,0,12.88,UA,1659790310
tagusao,9.1924,117.8141,77.52,87,100,5.48,PH,1659790311
caconda,-13.7333,15.0667,83.37,11,0,8.08,AO,1659790312
brandon,27.9378,-82.2859,83.89,91,0,5.01,US,1659790151
charters towers,-20.1,146.2667,70.47,68,15,12.48,AU,1659790313
nouakchott,18.0858,-15.9785,89.53,74,55,11.7,MR,1659790233
ilfracombe,51.2093,-4.1134,69.39,58,15,6.04,GB,1659790315
berlevag,70.8578,29.0864,62.6,58,100,13.8,NO,1659790315
constitucion,-35.3333,-72.4167,52.83,96,100,9.42,CL,1659790317
nabire,-3.3667,135.4833,76.37,92,100,3.51,ID,1659790318
tongren,27.7172,109.1853,78.82,88,2,1.77,CN,1659790318
namibe,-15.1961,12.1522,68.18,72,40,11.5,AO,1659790319
warri,5.5167,5.75,83.03,64,82,9.33,NG,1659790320
karatau,43.1667,70.4667,89.38,17,12,16.64,KZ,1659790163
saravan,39.7196,45.6483,82.17,33,84,9.91,AM,1659790321
lingao,19.9103,109.6859,80.37,87,100,4.05,CN,1659790322
changchun,43.88,125.3228,78.76,85,100,6.22,CN,1659790324
twentynine palms,34.1356,-116.0542,83.07,48,0,4.23,US,1659790324
nizhniy baskunchak,48.2198,46.8311,94.21,15,51,14.92,RU,1659790325
sioux lookout,50.1001,-91.917,62.67,67,20,6.91,CA,1659790326
hofn,64.2539,-15.2082,57.22,82,100,6.91,IS,1659790327
egvekinot,66.3167,-179.1667,43.81,64,16,4.16,RU,1659790328
takoradi,4.8845,-1.7554,78.39,66,13,8.12,GH,1659790329
reo,12.3167,-2.4667,88.16,54,76,7.9,BF,1659790330
evensk,61.95,159.2333,51.58,99,100,6.04,RU,1659790331
missoula,47.0166,-113.8009,55.8,76,72,4.36,US,1659790332
bethel,41.3712,-73.414,83.01,87,100,0.0,US,1659790316
petushki,55.9264,39.461,85.12,39,6,5.12,RU,1659790333
dodoma,-6.1722,35.7395,80.46,26,48,9.15,TZ,1659790334
birao,10.2849,22.7882,82.31,74,100,4.07,CF,1659790335
aurillac,44.9167,2.45,84.02,45,0,4.61,FR,1659790336
grindavik,63.8424,-22.4338,55.35,87,100,9.22,IS,1659790336
rio pardo de minas,-15.6097,-42.5397,81.27,38,10,6.87,BR,1659790337
hualmay,-11.0964,-77.6139,60.96,85,99,6.35,PE,1659790338
maumere,-8.6199,122.2111,75.13,73,100,7.43,ID,1659790339
youkounkoun,12.5333,-13.1333,82.13,76,92,4.59,GN,1659790340
plettenberg bay,-34.0527,23.3716,60.1,77,86,7.92,ZA,1659790341
the valley,18.217,-63.0578,85.86,74,40,17.27,AI,1659790341
wenling,28.3669,121.36,79.97,79,100,6.06,CN,1659790342
santa isabel do rio negro,-0.4139,-65.0192,82.8,67,2,2.98,BR,1659790343
barranca,-10.75,-77.7667,60.82,84,100,6.33,PE,1659790344
coromandel,-18.4733,-47.2003,79.86,28,0,4.54,BR,1659790345
morondava,-20.2833,44.2833,75.79,57,0,14.56,MG,1659790345
la baule-escoublac,47.2922,-2.364,82.71,26,0,14.97,FR,1659790121
passos,-20.7189,-46.6097,79.63,30,9,6.15,BR,1659790093
grand gaube,-20.0064,57.6608,72.37,71,6,5.99,MU,1659790347
turayf,31.6725,38.6637,109.65,22,0,9.22,SA,1659790348
solnechnyy,50.7214,136.6319,65.43,97,12,2.73,RU,1659790349
brest,52.1,23.7,75.16,78,100,13.42,BY,1659790350
manacapuru,-3.2997,-60.6206,84.16,58,7,4.74,BR,1659790351
carballo,43.213,-8.691,87.91,53,36,11.27,ES,1659790352
bratsk,56.1325,101.6142,54.09,93,100,4.92,RU,1659790293
ust-tsilma,65.441,52.1498,87.15,34,8,6.76,RU,1659790353
grand baie,-20.0182,57.5802,72.45,71,4,5.99,MU,1659790354
salalah,17.0151,54.0924,77.86,91,94,9.37,OM,1659790355
dwarka,22.2394,68.9678,83.53,75,99,8.55,IN,1659790355
batemans bay,-35.7167,150.1833,46.33,78,10,4.5,AU,1659790356
denpasar,-8.65,115.2167,78.46,83,40,3.44,ID,1659790357
sucua,-2.4667,-78.1667,68.85,87,100,1.48,EC,1659790358
barillas,15.8036,-91.3158,61.99,95,42,1.57,GT,1659790359
kokkola,63.8385,23.1307,66.36,76,20,17.27,FI,1659790359
ulladulla,-35.35,150.4667,50.36,71,10,8.03,AU,1659790361
laguna,38.421,-121.4238,64.4,84,0,9.22,US,1659790362
siauliai,55.9333,23.3167,62.62,82,40,5.75,LT,1659790362
noumea,-22.2763,166.4572,75.99,99,49,5.21,NC,1659790363
wajima,37.4,136.9,79.93,83,9,6.26,JP,1659790364
saint paul,44.9444,-93.0933,75.76,87,0,8.05,US,1659790365
jequie,-13.8575,-40.0836,79.86,51,49,3.83,BR,1659790366
taguatinga,-12.3857,-46.5711,90.05,27,5,7.38,BR,1659790367
shebunino,46.4339,141.8603,59.47,92,100,7.92,RU,1659790367
kargil,34.5667,76.1,65.48,49,94,5.48,IN,1659790368
acajutla,13.5928,-89.8275,78.1,79,98,5.23,SV,1659790369
harlingen,26.1906,-97.6961,81.9,96,31,6.15,US,1659790348
moerai,-22.4333,-151.3333,70.59,66,100,21.99,PF,1659790371
