City,Lat,Lng,Max Temp,Humidity,Cloudiness,Wind Speed,Country,Date
puerto ayora,-0.7393,-90.3518,23.64,91,54,1.01,EC,1673658402
ushuaia,-54.8,-68.3,9.81,46,40,32.21,AR,1673658403
rikitea,-23.1203,-134.9692,25.68,76,4,16.89,PF,1673658404
isangel,-19.55,169.2667,28.17,62,26,11.36,VU,1673658405
faanui,-16.4833,-151.75,26.37,80,100,22.86,PF,1673658406
avarua,-21.2078,-159.775,28.03,54,0,5.75,CK,1673658407
sakakah,29.9697,40.2064,7.78,79,0,7.27,SA,1673658409
orissaare,58.5592,23.0826,4.98,93,56,15.86,EE,1673658409
arraial do cabo,-22.9661,-42.0278,24.25,92,100,22.28,BR,1673658410
bluff,-46.6,168.3333,15.67,64,11,11.27,NZ,1673658411
torres,-29.3353,-49.7269,22.13,89,100,3.31,BR,1673658412
kavieng,-2.5744,150.7967,28.51,72,100,7.05,PG,1673658413
broome,42.2506,-75.833,-1.28,86,100,13.8,US,1673658414
bredasdorp,-34.5322,20.0403,17.23,84,87,1.48,ZA,1673658415
dingle,10.9995,122.6711,25.89,87,96,11.48,PH,1673658416
tazovskiy,67.4667,78.7,-29.0,95,100,15.12,RU,1673658417
ancud,-41.8697,-73.8203,12.82,80,72,6.58,CL,1673658417
barrow,71.2906,-156.7887,-18.99,78,0,23.02,US,1673658260
hermanus,-34.4187,19.2345,17.7,86,2,4.94,ZA,1673658419
provideniya,64.3833,-173.3,-16.65,90,14,7.78,RU,1673658420
beloha,-25.1667,45.05,22.83,87,0,11.18,MG,1673658421
kloulklubed,7.0419,134.2556,27.28,75,91,11.36,PW,1673658422
dubrovytsya,51.5744,26.565,1.33,90,100,9.42,UA,1673658422
punta arenas,-53.15,-70.9167,8.95,57,76,20.22,CL,1673658177
emerald,-23.5333,148.1667,20.19,93,100,19.53,AU,1673658425
orasje,45.0356,18.6933,4.05,86,100,5.12,BA,1673658427
cape town,-33.9258,18.4232,19.93,79,50,11.99,ZA,1673658304
tuatapere,-46.1333,167.6833,20.33,51,12,7.0,NZ,1673658429
khatanga,71.9667,102.5,-45.79,100,100,1.54,RU,1673658431
liverpool,53.4106,-2.9779,7.94,90,75,9.22,GB,1673658432
beysehir,37.6773,31.7246,1.93,76,83,3.29,TR,1673658433
busselton,-33.65,115.3333,18.88,44,0,15.17,AU,1673658434
marawi,7.9986,124.2928,22.4,93,100,2.59,PH,1673658434
hilo,19.7297,-155.09,26.85,59,0,13.8,US,1673658435
san jose,37.3394,-121.895,14.61,89,100,6.91,US,1673658401
albany,42.6001,-73.9662,0.21,81,100,1.99,US,1673658438
barra da estiva,-13.6261,-41.3269,18.3,91,16,3.04,BR,1673658439
belmonte,-15.8631,-38.8828,24.73,82,0,6.87,BR,1673658440
chuy,-33.6971,-53.4616,19.33,75,100,4.61,UY,1673658441
avera,33.194,-82.5271,6.73,58,100,15.79,US,1673658442
birobidzhan,48.8,132.95,-25.5,77,0,7.49,RU,1673658442
khingansk,49.1167,131.1833,-30.4,84,19,7.74,RU,1673658443
port elizabeth,-33.918,25.5701,20.17,76,18,1.99,ZA,1673658446
bac lieu,9.285,105.7244,25.01,82,7,3.02,VN,1673658447
palmer,42.1584,-72.3287,4.81,77,100,9.22,US,1673658448
spydeberg,59.6171,11.0856,2.4,98,100,1.99,NO,1673658449
hobart,-42.8794,147.3294,31.79,44,20,12.66,AU,1673658451
lebu,-37.6167,-73.65,13.79,87,8,18.59,CL,1673658452
qaanaaq,77.484,-69.3632,-16.02,75,100,5.32,GL,1673658454
iqaluit,63.7506,-68.5145,-34.69,90,32,7.14,CA,1673658455
castro,-24.7911,-50.0119,18.6,97,100,6.06,BR,1673658456
dikson,73.5069,80.5464,-36.91,93,16,5.48,RU,1673658457
carnarvon,-24.8667,113.6333,26.89,49,0,18.88,AU,1673658458
geraldton,-28.7667,114.6,27.23,41,0,25.32,AU,1673658459
butaritari,3.0707,172.7902,27.34,80,98,14.81,KI,1673658460
maceio,-9.6658,-35.7353,24.69,94,40,4.61,BR,1673658460
red bluff,40.1785,-122.2358,10.38,87,100,18.41,US,1673658461
aldan,58.6031,125.3894,-31.77,98,100,5.06,RU,1673658462
townsville,-19.25,146.8,23.49,94,100,10.36,AU,1673658463
bathsheba,13.2167,-59.5167,25.34,78,20,11.5,BB,1673658464
port hardy,50.6996,-127.4199,8.23,94,100,12.64,CA,1673658465
fairbanks,64.8378,-147.7164,-21.62,84,85,2.3,US,1673658274
luganville,-15.5333,167.1667,27.79,79,100,6.26,VU,1673658466
east london,-33.0153,27.9116,22.53,79,90,3.33,ZA,1673658467
sitka,57.0531,-135.33,5.94,75,100,4.61,US,1673658468
kodiak,57.79,-152.4072,3.73,100,100,13.8,US,1673658469
nalut,30.3333,10.85,9.07,62,100,7.14,LY,1673658470
nieuw amsterdam,5.8833,-55.0833,25.57,88,99,8.28,SR,1673658471
esperance,-33.8667,121.9,17.68,55,64,18.52,AU,1673658472
san lorenzo,-25.3333,-57.5333,21.52,88,20,4.61,PY,1673658473
cap malheureux,-19.9842,57.6142,24.15,77,37,3.0,MU,1673658474
mar del plata,-38.0023,-57.5575,17.27,78,0,4.0,AR,1673658475
tsumeb,-19.2333,17.7167,22.91,34,24,8.12,NA,1673658475
jamestown,42.097,-79.2353,-3.23,75,100,10.36,US,1673658469
sur,22.5667,59.5289,19.25,50,0,20.6,OM,1673658477
nome,64.5011,-165.4064,-20.47,99,0,0.0,US,1673658478
torrijos,39.9819,-4.2835,7.69,75,92,2.57,ES,1673658478
torbay,47.6666,-52.7314,0.88,90,100,25.32,CA,1673658200
hervey bay,-25.2986,152.8535,22.23,93,100,5.99,AU,1673658480
upernavik,72.7868,-56.1549,-18.29,58,100,7.14,GL,1673658481
byron bay,-28.65,153.6167,23.73,65,74,9.31,AU,1673658482
hatillo,18.4863,-66.8254,25.01,87,2,1.99,PR,1673658483
pevek,69.7008,170.3133,-32.26,99,36,4.99,RU,1673658483
bilibino,68.0546,166.4372,-31.11,96,93,4.21,RU,1673658484
santiago del estero,-27.7951,-64.2615,24.34,35,0,1.79,AR,1673658485
vao,-22.6667,167.4833,25.71,62,0,13.71,NC,1673658486
new norfolk,-42.7826,147.0587,31.6,34,0,1.99,AU,1673658487
nikolskoye,59.7035,30.7861,1.94,98,100,8.68,RU,1673658489
svetlaya,46.5389,138.3297,-10.3,52,100,8.34,RU,1673658490
saint-philippe,-21.3585,55.7679,23.77,79,74,9.55,RE,1673658491
pochutla,15.7432,-96.4661,26.01,75,0,4.32,MX,1673658492
zapolyarnyy,69.4154,30.8136,-5.4,89,88,13.62,RU,1673658495
nishihara,26.1842,127.7558,23.6,83,40,17.27,JP,1673658496
vila velha,-20.3297,-40.2925,25.97,87,75,10.36,BR,1673658376
vaini,-21.2,-175.2,31.09,74,40,11.5,TO,1673658498
san francisco,37.7749,-122.4194,14.67,91,75,13.0,US,1673658234
bengkulu,-3.8004,102.2655,24.82,85,100,3.2,ID,1673658499
teguise,29.0605,-13.564,16.12,88,20,9.22,ES,1673658501
codrington,-38.2667,141.9667,32.89,24,7,1.88,AU,1673658222
kabo,7.6994,18.629,21.42,23,71,4.07,CF,1673658502
tres rios,-22.1167,-43.2092,23.16,94,100,2.39,BR,1673658503
gat,31.61,34.7642,13.55,100,6,9.53,IL,1673658504
longyearbyen,78.2186,15.6401,-1.09,74,75,25.32,SJ,1673658505
tautira,-17.7333,-149.15,26.11,81,100,16.35,PF,1673658507
storm lake,42.6411,-95.2097,-8.88,100,0,6.91,US,1673658508
kapaa,22.0752,-159.319,27.99,63,0,9.22,US,1673658509
turukhansk,65.8167,87.9833,-36.97,89,37,10.13,RU,1673658510
kavaratti,10.5669,72.642,27.11,64,100,13.15,IN,1673658511
mataura,-46.1927,168.8643,22.88,36,6,3.29,NZ,1673658514
thompson,55.7435,-97.8558,-14.05,98,83,5.19,CA,1673658515
salalah,17.0151,54.0924,24.05,73,75,5.75,OM,1673658516
mehamn,71.0357,27.8492,1.97,75,15,20.71,NO,1673658517
saltpond,5.2091,-1.0606,25.55,88,21,3.0,GH,1673658518
dondo,-19.6094,34.7431,22.31,92,12,1.3,MZ,1673658519
quime,-16.9833,-67.2167,11.27,94,88,4.9,BO,1673658520
bereda,43.2686,-7.5406,11.75,97,100,6.67,ES,1673658521
moose factory,51.2585,-80.6094,-28.83,100,100,2.39,CA,1673658522
kruisfontein,-34.0033,24.7314,17.16,86,86,1.7,ZA,1673658523
savannah bight,16.45,-85.85,26.27,71,23,13.51,HN,1673658524
mayumba,-3.432,10.6554,24.56,86,99,1.79,GA,1673658525
grindavik,63.8424,-22.4338,-2.74,63,0,13.8,IS,1673658526
karla,59.3723,24.9275,4.99,96,100,10.36,EE,1673658528
yar-sale,66.8333,70.8333,-21.77,100,100,5.66,RU,1673658529
scottsbluff,41.8666,-103.6672,5.62,81,0,3.44,US,1673658530
pengcheng,36.4311,114.17,-2.64,90,100,9.53,CN,1673658530
san miguel,13.4833,-88.1833,27.98,42,73,4.34,SV,1673658531
georgetown,5.4112,100.3354,25.96,94,20,2.3,MY,1673658532
chardara,41.2547,67.9692,-17.37,94,20,3.51,KZ,1673658533
port alfred,-33.5906,26.891,20.66,92,94,5.64,ZA,1673658534
los llanos de aridane,28.6585,-17.9182,16.86,73,75,11.5,ES,1673658535
oistins,13.0667,-59.5333,25.05,78,20,11.5,BB,1673658537
bethel,41.3712,-73.414,4.7,73,100,10.36,US,1673658538
balvi,57.1313,27.2658,1.95,97,100,9.26,LV,1673658540
talnakh,69.4865,88.3972,-37.11,86,19,6.87,RU,1673658542
jiayuguan,39.8167,98.3,-13.64,61,95,1.03,CN,1673658544
mitu,1.1983,-70.1733,22.69,97,100,0.74,CO,1673658545
hamilton,39.1834,-84.5333,0.25,80,100,14.97,US,1673658447
aklavik,68.2191,-135.0107,-23.73,97,100,5.59,CA,1673658285
itarema,-2.9248,-39.9167,26.13,81,43,13.6,BR,1673658324
atuona,-9.8,-139.0333,25.27,71,99,6.11,PF,1673658547
sterling,39.0062,-77.4286,4.94,69,100,21.85,US,1673658491
padang,-0.9492,100.3543,24.03,80,100,1.97,ID,1673658549
ageyevo,54.1588,36.4693,-2.85,95,100,9.13,RU,1673658550
tongren,27.7172,109.1853,8.32,82,100,10.96,CN,1673658551
sinnamary,5.3833,-52.95,24.28,89,18,9.62,GF,1673658552
kahului,20.8947,-156.47,27.01,50,20,5.01,US,1673658456
petropavlovsk-kamchatskiy,53.0452,158.6483,-13.67,61,20,6.71,RU,1673658554
san patricio,28.017,-97.5169,15.05,40,0,7.18,US,1673658555
nanortalik,60.1432,-45.2371,-8.41,62,100,8.46,GL,1673658556
saskylakh,71.9167,114.0833,-50.11,100,87,2.24,RU,1673658557
sivaki,52.6333,126.75,-30.13,86,6,5.59,RU,1673658559
mahebourg,-20.4081,57.7,24.03,70,90,11.79,MU,1673658560
westerland,54.9079,8.3033,7.01,87,75,19.57,DE,1673658562
benguela,-12.5763,13.4055,25.37,78,100,2.91,AO,1673658563
dubrovka,53.6907,33.5071,-6.71,95,93,10.11,RU,1673658564
rawson,-43.3002,-65.1023,22.75,40,44,18.39,AR,1673658565
olafsvik,64.8945,-23.7142,-2.14,79,96,18.23,IS,1673658567
namatanai,-3.6667,152.4333,28.84,67,100,4.92,PG,1673658568
pangnirtung,66.1451,-65.7125,-31.86,100,100,2.1,CA,1673658569
katsuura,35.1333,140.3,17.01,90,100,24.83,JP,1673658570
portel,-1.9356,-50.8211,23.86,93,100,3.76,BR,1673658571
neepawa,50.2289,-99.4664,-7.54,96,100,4.27,CA,1673658572
pacific grove,36.6177,-121.9166,15.24,89,82,15.99,US,1673658573
margate,51.3813,1.3862,8.16,81,100,4.0,GB,1673658574
nelson bay,-32.7167,152.15,25.0,82,99,7.0,AU,1673658574
bowen,-20.0167,148.2333,24.74,90,100,15.68,AU,1673658575
mindelo,16.8901,-24.9804,21.48,71,0,12.91,CV,1673658576
shingu,33.7333,135.9833,17.7,95,100,16.42,JP,1673658577
westport,41.1415,-73.3579,6.61,72,100,12.66,US,1673658347
borogontsy,62.6683,131.1683,-55.93,100,91,1.88,RU,1673658578
souillac,-20.5167,57.5167,24.21,74,19,11.07,MU,1673658579
kang,-23.6752,22.7876,21.16,33,0,7.65,BW,1673658580
eskil,38.4017,33.4131,2.0,54,100,6.67,TR,1673658581
severo-kurilsk,50.6789,156.125,-6.19,70,81,24.43,RU,1673658583
cayenne,4.9333,-52.3333,24.02,94,100,2.3,GF,1673658584
grand gaube,-20.0064,57.6608,24.1,77,25,5.99,MU,1673658587
husavik,66.0449,-17.3389,-8.82,93,100,4.99,IS,1673658588
hobyo,5.3505,48.5268,24.64,75,87,20.24,SO,1673658589
ponto novo,-10.8628,-40.1336,23.48,77,89,4.74,BR,1673658590
neyshabur,36.2133,58.7958,-7.75,45,3,1.68,IR,1673658590
ribeira grande,38.5167,-28.7,15.43,94,100,8.01,PT,1673658591
lavrentiya,65.5833,-171.0,-21.57,93,30,4.81,RU,1673658592
hami,42.8,93.45,-14.84,69,5,2.59,CN,1673658593
tingo maria,-9.2895,-76.0088,21.81,96,100,2.17,PE,1673658594
saint-donat-de-montcalm,46.3187,-74.2219,-8.42,89,99,9.95,CA,1673658595
hambantota,6.1241,81.1185,21.19,100,0,2.3,LK,1673658465
tiksi,71.6872,128.8694,-36.67,99,99,8.12,RU,1673658597
severo-yeniseyskiy,60.3725,93.0408,-25.52,99,100,3.74,RU,1673658597
evensk,61.95,159.2333,-13.35,70,100,15.32,RU,1673658598
merauke,-8.4667,140.3333,26.73,76,100,8.57,ID,1673658599
pitimbu,-7.4706,-34.8086,26.33,75,7,12.1,BR,1673658381
bridgewater,44.3835,-64.5155,12.28,95,100,10.0,CA,1673658601
bulawayo,-20.15,28.5833,17.92,81,71,8.37,ZW,1673658602
hasaki,35.7333,140.8333,16.22,86,100,25.48,JP,1673658603
bonanza,14.0289,-84.591,20.86,86,94,3.44,NI,1673658603
ca mau,9.1769,105.15,25.53,83,5,1.81,VN,1673658604
cabo san lucas,22.8909,-109.9124,24.61,68,0,3.44,MX,1673658572
ilulissat,69.2167,-51.1,-21.39,71,100,7.11,GL,1673658606
taltal,-25.4,-70.4833,19.88,76,0,5.61,CL,1673658607
russell,32.3502,-85.1999,5.11,65,100,16.11,US,1673658608
sao gabriel da cachoeira,-0.1303,-67.0892,22.52,98,90,0.31,BR,1673658610
port-gentil,-0.7193,8.7815,26.58,80,76,11.99,GA,1673658610
college,64.8569,-147.8028,-21.63,81,75,0.0,US,1673658611
fortuna,40.5982,-124.1573,13.19,95,100,6.91,US,1673658612
nova olinda do norte,-3.8881,-59.0942,23.17,98,100,2.64,BR,1673658613
vanavara,60.34,102.2797,-29.14,100,100,2.3,RU,1673658614
kailua,21.4022,-157.7394,27.99,62,7,4.0,US,1673658615
bilma,18.6853,12.9164,15.97,28,100,7.9,NE,1673658616
kyzyl-suu,42.3414,78.0056,-14.36,64,100,7.63,KG,1673658617
camacha,33.0833,-16.3333,14.68,67,75,9.22,PT,1673658618
alice springs,-23.7,133.8833,31.75,40,0,10.36,AU,1673658619
richards bay,-28.783,32.0377,23.6,88,6,11.21,ZA,1673658620
rudnichnyy,59.617,52.4703,-7.54,92,100,12.17,RU,1673658621
victoria,22.2855,114.1577,23.31,96,34,5.99,HK,1673658480
labuhan,-6.8844,112.2051,27.16,73,49,5.82,ID,1673658622
srednekolymsk,67.45,153.6833,-33.85,95,100,2.53,RU,1673658623
okakarara,-20.5833,17.4333,21.27,31,5,6.4,NA,1673658624
adrar,20.5022,-10.0711,16.32,19,0,10.6,MR,1673658625
hithadhoo,-0.6,73.0833,26.91,68,98,11.59,MV,1673658419
havelock,34.8791,-76.9013,11.99,76,100,5.01,US,1673658626
iwaki,37.05,140.8833,13.2,71,100,6.22,JP,1673658627
te anau,-45.4167,167.7167,21.32,49,11,2.75,NZ,1673658628
pokrovsk,48.282,37.1758,-2.26,92,100,10.22,UA,1673658629
klaksvik,62.2266,-6.589,0.51,67,100,20.71,FO,1673658630
mobai,7.9944,-10.7511,19.52,76,11,1.54,SL,1673658631
leningradskiy,69.3833,178.4167,-26.22,99,96,4.0,RU,1673658632
mehran,33.1222,46.1646,12.2,60,100,6.67,IR,1673658633
eydhafushi,5.1033,73.0708,26.0,64,100,7.99,MV,1673658634
bay city,43.5945,-83.8889,-3.0,71,0,11.5,US,1673658635
peace river,56.2501,-117.286,-6.2,93,100,6.91,CA,1673658637
lodwar,3.1191,35.5973,25.82,40,0,4.5,KE,1673658638
lata,40.1629,-8.3327,8.93,90,100,2.95,PT,1673658639
san quintin,30.4833,-115.95,15.88,71,100,9.73,MX,1673658640
san cristobal,7.7669,-72.225,22.1,87,2,1.72,VE,1673658641
ahipara,-35.1667,173.1667,20.42,82,59,3.36,NZ,1673658642
balkhash,46.844,74.9804,-22.66,84,20,2.24,KZ,1673658643
vanimo,-2.6741,141.3028,28.94,73,100,3.09,PG,1673658643
gao,16.6362,1.637,16.46,17,54,10.49,ML,1673658644
ponta do sol,32.6667,-17.1,17.35,74,11,6.6,PT,1673658645
kemijarvi,66.7131,27.4306,-1.13,95,100,5.32,FI,1673658646
cidreira,-30.1811,-50.2056,21.51,88,100,8.57,BR,1673658647
kuito,-12.3833,16.9333,14.27,97,100,1.7,AO,1673658648
khromtau,50.2503,58.4347,-15.44,96,19,10.16,KZ,1673658649
caravelas,-17.7125,-39.2481,24.92,83,4,6.96,BR,1673658649
sambava,-14.2667,50.1667,23.71,89,100,5.91,MG,1673658650
mandera,3.9366,41.867,24.2,32,7,6.35,KE,1673658651
dicabisagan,17.0818,122.4157,25.86,79,96,2.39,PH,1673658652
parabel,58.6978,81.4825,-13.53,94,100,12.46,RU,1673658653
taybad,34.74,60.7756,-19.53,68,5,5.23,IR,1673658654
yulara,-25.2406,130.9889,33.59,26,5,6.91,AU,1673658655
shiraz,29.6036,52.5388,3.69,75,75,0.0,IR,1673658656
taormina,37.8536,15.2885,12.8,66,100,7.11,IT,1673658657
samana,19.2056,-69.3369,22.51,91,9,5.53,DO,1673658658
storforshei,66.4043,14.5233,0.37,92,100,0.0,NO,1673658659
dabakala,8.3667,-4.4333,24.22,21,94,3.33,CI,1673658660
sibolga,1.7427,98.7792,24.45,88,100,2.48,ID,1673658661
batagay,67.6333,134.6333,-40.87,100,97,2.06,RU,1673658662
atasu,48.6814,71.6433,-24.52,96,46,7.2,KZ,1673658663
alofi,-19.0595,-169.9187,29.94,51,20,10.36,NU,1673658664
north platte,41.1239,-100.7654,0.21,80,0,10.0,US,1673658664
norden,53.6,7.2,7.2,97,66,1.01,DE,1673658665
eenhana,-17.4667,16.3333,19.86,73,40,8.21,NA,1673658666
pringsewu,-5.3582,104.9744,26.04,81,96,4.92,ID,1673658667
oranjemund,-28.55,16.4333,16.11,94,2,7.23,NA,1673658669
mazamari,-11.3258,-74.5308,23.78,81,100,1.54,PE,1673658669
cotacachi,0.3,-78.2667,13.75,93,100,1.83,EC,1673658670
necochea,-38.5473,-58.7368,14.43,78,0,4.7,AR,1673658671
saint-joseph,-21.3667,55.6167,23.21,79,75,8.32,RE,1673658460
arteni,40.2985,43.7622,-8.7,71,100,3.85,AM,1673658673
tailai,46.3833,123.4,-20.63,61,14,5.48,CN,1673658673
korhogo,9.45,-5.6333,21.65,21,4,4.61,CI,1673658674
sao joao da barra,-21.6403,-41.0511,24.65,89,100,21.61,BR,1673658675
walvis bay,-22.9575,14.5053,17.27,93,60,3.94,NA,1673658676
narsaq,60.9167,-46.05,-13.88,75,98,10.02,GL,1673658677
calarasi,47.2544,28.3081,-2.6,96,100,5.37,MD,1673658678
vila franca do campo,37.7167,-25.4333,17.23,90,100,15.23,PT,1673658679
pinhao,-25.6956,-51.6597,17.78,98,100,2.91,BR,1673658680
tigil,57.8,158.6667,-11.22,93,100,3.02,RU,1673658681
onega,63.9061,38.1404,0.38,94,100,7.34,RU,1673658682
vermillion,42.7794,-96.9292,-5.72,85,100,8.7,US,1673658684
gillette,44.2911,-105.5022,4.51,68,0,8.01,US,1673658684
bataysk,47.1398,39.7518,-0.62,73,90,14.36,RU,1673658685
pasighat,28.0667,95.3333,12.71,79,91,3.24,IN,1673658686
longkou,37.6508,120.3286,-2.64,63,100,35.16,CN,1673658687
kudahuvadhoo,2.6708,72.8944,26.39,65,90,12.48,MV,1673658688
shirvan,39.9509,48.8994,1.7,99,100,6.04,AZ,1673658689
mayo,38.8876,-76.5119,5.97,64,100,17.27,US,1673658690
sfantu gheorghe,45.8667,25.7833,0.52,91,19,1.59,RO,1673658691
modasa,23.4667,73.3,12.5,44,4,6.58,IN,1673658691
clyde river,70.4692,-68.5914,-30.4,83,96,2.75,CA,1673658692
savinka,50.0785,47.0994,-11.53,81,12,10.29,RU,1673658693
marktheidenfeld,49.8442,9.6039,7.28,83,100,8.99,DE,1673658694
touros,-5.1989,-35.4608,26.44,78,18,14.2,BR,1673658695
zholymbet,51.7433,71.7122,-12.51,87,100,16.15,KZ,1673658696
bera,24.0833,89.6167,15.08,55,0,3.83,BD,1673658697
rio gallegos,-51.6226,-69.2181,14.03,35,20,25.32,AR,1673658644
acapulco,16.8634,-99.8901,26.9,74,0,9.22,MX,1673658496
arak,34.0917,49.6892,-4.06,75,99,2.08,IR,1673658700
santa clara,22.4,-79.9667,21.81,78,20,8.05,CU,1673658701
kalamazoo,42.2506,-85.55,-0.84,70,100,12.66,US,1673658689
moa,20.6569,-74.9403,23.03,83,17,6.46,CU,1673658702
jaisalmer,26.9147,70.9181,9.54,29,0,8.97,IN,1673658703
dabola,10.75,-11.1167,21.69,23,11,2.24,GN,1673658704
sokyryany,48.4475,27.4168,-1.45,96,89,4.36,UA,1673658705
porgera,-5.4667,143.2,12.08,71,100,4.21,PG,1673658706
deputatskiy,69.3,139.9,-37.96,96,100,3.44,RU,1673658707
tuktoyaktuk,69.4541,-133.0374,-18.71,83,100,12.91,CA,1673658708
ntchisi,-13.5278,33.9149,14.45,94,100,1.39,MW,1673658709
lasa,46.6166,10.7002,-2.21,87,39,5.1,IT,1673658710
meulaboh,4.1363,96.1285,24.47,88,70,3.13,ID,1673658711
privolnyy,44.0998,46.6587,2.74,67,82,28.12,RU,1673658711
majene,-3.5403,118.9707,28.6,65,100,1.81,ID,1673658712
umarkot,25.3616,69.7362,9.81,21,0,7.76,PK,1673658713
port lincoln,-34.7333,135.8667,27.16,46,0,20.09,AU,1673658714
iracoubo,5.4802,-53.2011,24.35,90,19,10.74,GF,1673658715
buraydah,26.326,43.975,15.38,62,100,13.2,SA,1673658716
sorland,67.667,12.6934,0.92,66,99,23.22,NO,1673658718
coahuayana,18.7333,-103.6833,23.28,72,0,1.68,MX,1673658718
wanning,18.8003,110.3967,23.06,81,0,9.19,CN,1673658719
kamarion,36.8,25.8167,11.72,68,88,21.23,GR,1673658720
bonthe,7.5264,-12.505,24.6,83,14,5.12,SL,1673658721
kulim,5.365,100.5618,25.74,93,91,3.42,MY,1673658723
hargeysa,9.56,44.065,13.76,96,61,9.86,SO,1673658724
airai,-8.9266,125.4092,20.32,74,100,2.44,TL,1673658725
vostok,46.4856,135.8833,-23.15,89,75,4.68,RU,1673658726
barras,-4.2444,-42.2944,24.73,78,99,5.44,BR,1673658727
andra,62.5147,65.8878,-10.93,96,100,5.61,RU,1673658728
kenai,60.5544,-151.2583,-2.17,80,100,8.05,US,1673658729
moron,-34.6534,-58.6198,26.1,23,0,4.41,AR,1673658730
vardo,70.3705,31.1107,-3.01,86,16,18.41,NO,1673658731
luba,3.4568,8.5547,26.75,80,18,5.14,GQ,1673658731
saint-leu,-21.15,55.2833,24.62,77,75,3.83,RE,1673658732
hoddesdon,51.7615,-0.0114,8.86,84,100,4.0,GB,1673658733
chukhloma,58.7525,42.6825,-7.23,94,100,10.25,RU,1673658734
norman wells,65.282,-126.8329,-25.03,99,100,1.97,CA,1673658735
odweyne,9.4092,45.064,16.78,73,85,4.7,SO,1673658736
morondava,-20.2833,44.2833,26.78,78,100,3.18,MG,1673658737
itaueira,-7.6033,-43.0256,25.39,64,90,3.27,BR,1673658738
flinders,-34.5833,150.8552,26.32,71,96,7.0,AU,1673658739
kon tum,14.35,108.0,20.43,93,26,2.1,VN,1673658739
algiers,36.7525,3.042,7.9,93,40,2.3,DZ,1673658631
bitung,1.4451,125.1824,30.47,66,100,2.21,ID,1673658741
verkhnyaya toyma,62.2349,44.9985,-1.93,93,100,7.31,RU,1673658742
constitucion,-35.3333,-72.4167,13.3,87,0,12.68,CL,1673658743
gamba,-2.65,10.0,23.53,92,100,2.44,GA,1673658744
kasongo,-4.45,26.6667,19.26,97,100,2.08,CD,1673658744
vero beach,27.6386,-80.3973,14.99,66,100,21.85,US,1673658664
chokurdakh,70.6333,147.9167,-34.53,96,100,6.17,RU,1673658746
port blair,11.6667,92.75,23.02,94,20,0.0,IN,1673658747
mirante do paranapanema,-22.2919,-51.9064,22.19,91,100,6.31,BR,1673658748
aquiraz,-3.9014,-38.3911,28.05,80,63,14.0,BR,1673658731
bella vista,36.4295,-94.2316,0.29,75,0,5.75,US,1673658555
naryan-mar,67.6713,53.087,-8.58,95,97,10.74,RU,1673658751
uzice,43.8586,19.8488,3.33,85,100,3.11,RS,1673658752
tezu,27.9167,96.1667,13.47,43,70,3.53,IN,1673658753
dinar,38.065,30.1656,2.98,92,93,3.58,TR,1673658754
volodarka,49.5248,29.9122,-1.89,92,88,6.53,UA,1673658755
kotovo,50.3211,44.8012,-12.45,89,14,10.38,RU,1673658755
hofn,64.2539,-15.2082,-3.38,79,100,15.64,IS,1673658756
wenling,28.3669,121.36,16.81,97,100,3.89,CN,1673658609
roma,43.2128,-75.4557,-2.49,85,100,11.5,US,1673658758
mao,39.8885,4.2658,11.31,82,0,2.3,ES,1673658536
sola,-13.8833,167.55,26.41,77,92,9.86,VU,1673658760
buchanan,5.8808,-10.0467,25.54,85,99,4.25,LR,1673658761
japura,-0.3167,102.35,23.68,95,100,1.57,ID,1673658762
jasper,37.2001,-94.3502,-1.18,76,40,0.0,US,1673658475
yarkovo,57.4028,67.0786,-8.71,77,62,13.42,RU,1673658764
kamen-rybolov,44.7481,132.0403,-18.67,75,93,12.08,RU,1673658764
nautla,20.2167,-96.7833,17.57,62,0,8.93,MX,1673658765
vyazemskiy,47.5378,134.7525,-24.52,82,31,10.2,RU,1673658766
aguilas,37.4063,-1.5829,12.79,59,23,1.48,ES,1673658767
chake chake,-5.2459,39.7666,24.95,81,48,7.29,TZ,1673658768
lazaro cardenas,17.9583,-102.2,25.31,73,0,5.61,MX,1673658769
cherskiy,68.75,161.3,-36.11,98,100,3.06,RU,1673658769
guerrero negro,27.9769,-114.0611,17.52,60,12,8.23,MX,1673658770
antalaha,-14.9003,50.2788,23.36,90,100,5.23,MG,1673658771
dudinka,69.4058,86.1778,-36.88,97,59,3.42,RU,1673658772
valparaiso,-33.0393,-71.6273,18.6,100,0,5.75,CL,1673658743
mount gambier,-37.8333,140.7667,35.25,15,6,3.89,AU,1673658773
imbituba,-28.24,-48.6703,22.14,93,100,3.6,BR,1673658774
pipri,19.8,75.5333,13.69,59,0,3.56,IN,1673658775
pisco,-13.7,-76.2167,21.03,78,0,14.97,PE,1673658776
qaqortoq,60.7167,-46.0333,-15.32,79,99,9.89,GL,1673658777
mali,12.079,-12.2982,16.43,21,2,1.36,GN,1673658779
hay river,60.8156,-115.7999,-22.02,77,75,8.05,CA,1673658779
komsomolskiy,40.4272,71.7189,-12.6,78,6,2.3,UZ,1673658780
monroe,43.1501,-77.6831,-2.21,89,100,12.66,US,1673658781
selikhino,50.3672,137.4996,-21.34,92,100,3.15,RU,1673658782
tabou,4.423,-7.3528,26.28,79,100,4.94,CI,1673658783
awjilah,29.1081,21.2869,12.27,73,0,8.68,LY,1673658784
fare,-16.7,-151.0167,27.18,75,100,24.29,PF,1673658785
dromolaxia,34.8761,33.586,12.62,94,75,13.8,CY,1673658786
portland,45.5234,-122.6762,12.32,93,100,4.0,US,1673658787
porto novo,6.4965,2.6036,24.65,85,100,5.77,BJ,1673658788
orange cove,36.6244,-119.3137,15.9,93,100,3.44,US,1673658789
killarney,52.05,-9.5167,9.48,99,100,3.78,IE,1673658790
port hedland,-20.3167,118.5667,31.03,70,100,13.8,AU,1673658791
harper,4.375,-7.7169,26.2,79,100,5.64,LR,1673658792
taonan,45.3333,122.7833,-17.8,35,100,7.63,CN,1673658793
phan thiet,10.9333,108.1,25.25,85,75,2.44,VN,1673658793
tessalit,20.1986,1.0114,17.72,20,100,9.8,ML,1673658794
saint george,37.1041,-113.5841,11.64,56,0,4.61,US,1673658625
nantai,40.9241,122.8044,-10.69,47,100,24.34,CN,1673658796
sorong,-0.8833,131.25,28.09,74,34,4.81,ID,1673658796
saint-augustin,51.226,-58.6502,-5.58,96,100,9.24,CA,1673658797
solnechnyy,50.7214,136.6319,-22.29,94,99,4.34,RU,1673658798
polovinnoye,54.7914,65.9864,-10.91,73,38,14.85,RU,1673658799
baculin,7.4525,126.5842,27.63,77,100,2.95,PH,1673658800
fort nelson,58.8053,-122.7002,-13.36,92,100,1.52,CA,1673658801
krasnoslobodsk,48.7072,44.5714,-8.1,73,75,15.66,RU,1673658802
whitehorse,60.7161,-135.0538,-11.06,82,100,3.0,CA,1673658802
okhotsk,59.3833,143.3,-34.02,83,60,16.33,RU,1673658803
abu kamal,34.4506,40.9171,8.51,56,100,7.07,SY,1673658804
vagay,57.9375,69.0217,-7.8,89,100,10.74,RU,1673658805
west wendover,40.7391,-114.0733,0.41,86,100,2.3,US,1673658806
kilindoni,-7.9139,39.6668,26.93,75,86,7.92,TZ,1673658807
muleba,-1.8397,31.6544,17.22,81,15,5.59,TZ,1673658807
shar,49.5886,81.0453,-21.41,83,82,14.03,KZ,1673658808
henties bay,-22.116,14.2845,18.41,84,98,6.67,NA,1673658809
huilong,31.8111,121.655,8.85,91,100,16.82,CN,1673658811
ayan,56.45,138.1667,-29.81,63,0,18.3,RU,1673658811
malinovoye ozero,51.6753,79.7825,-16.17,85,88,12.59,RU,1673658812
khomutovka,51.9207,34.5619,-7.04,97,61,7.81,RU,1673658813
bambous virieux,-20.3428,57.7575,24.01,70,81,11.39,MU,1673658814
ikalamavony,-21.15,46.5833,20.28,91,100,5.1,MG,1673658815
kalashnikovo,57.2824,35.2262,-5.01,94,100,10.69,RU,1673658816
douglas,41.3,-96.167,-3.98,84,0,6.91,US,1673658816
constantine,36.365,6.6147,8.67,87,40,6.91,DZ,1673658817
gisborne,-38.6533,178.0042,18.73,59,16,10.96,NZ,1673658818
mildura,-34.2,142.15,35.6,30,10,9.64,AU,1673658819
asau,46.4333,26.4,-1.49,89,17,3.94,RO,1673658820
baykit,61.67,96.37,-36.51,100,90,2.21,RU,1673658821
tasiilaq,65.6145,-37.6368,-8.91,66,100,11.07,GL,1673658822
lorengau,-2.0226,147.2712,28.79,72,100,7.2,PG,1673658822
chlorakas,34.8042,32.4083,11.49,82,100,5.75,CY,1673658823
luderitz,-26.6481,15.1594,18.82,61,0,18.68,NA,1673658824
rudnogorsk,57.2639,103.7519,-16.27,93,100,9.37,RU,1673658825
salinopolis,-0.6136,-47.3561,25.98,85,98,11.21,BR,1673658826
vung tau,10.346,107.0843,25.17,86,58,1.83,VN,1673658826
qianan,44.9932,124.0581,-17.85,55,100,10.29,CN,1673658827
voyvozh,62.892,54.9635,-6.18,92,100,10.69,RU,1673658828
senneterre,48.3835,-77.2328,-18.38,92,6,9.46,CA,1673658829
kendari,-3.945,122.4989,29.55,64,92,3.31,ID,1673658829
pachino,36.7186,15.0907,12.83,80,100,9.46,IT,1673658831
manavalakurichi,8.1333,77.3,21.53,80,38,5.99,IN,1673658832
manokwari,-0.8667,134.0833,28.03,71,99,2.8,ID,1673658832
lincoln,40.8,-96.667,-2.06,77,0,5.75,US,1673658646
brand-erbisdorf,50.8667,13.3333,4.91,82,47,16.82,DE,1673658834
presidencia roque saenz pena,-26.7852,-60.4388,21.56,67,20,4.18,AR,1673658835
banda aceh,5.5577,95.3222,25.7,82,97,4.0,ID,1673658835
sundsvall,62.3913,17.3063,-1.02,93,100,4.61,SE,1673658836
bonavista,48.6499,-53.1147,-1.15,94,100,20.36,CA,1673658837
jinxiang,27.4327,120.6062,17.42,95,65,2.26,CN,1673658838
laguna,38.421,-121.4238,13.36,93,100,14.97,US,1673658839
revelstoke,50.9832,-118.2023,0.01,100,100,0.0,CA,1673658839
yeppoon,-23.1333,150.7333,22.88,79,100,16.35,AU,1673658840
oytal,42.9057,73.2697,-19.33,75,3,4.41,KZ,1673658841
ternate,0.8,127.4,28.15,72,66,7.23,ID,1673658842
yellowknife,62.456,-114.3525,-23.58,76,100,8.99,CA,1673658843
mizan teferi,6.9833,35.5833,16.65,70,33,2.46,ET,1673658844
uwajima,33.2238,132.56,16.06,97,100,1.81,JP,1673658846
atar,20.5169,-13.0499,19.38,23,0,8.86,MR,1673658846
deming,32.2687,-107.7586,10.94,25,0,6.91,US,1673658847
othaya,-0.5652,36.9609,10.37,84,1,5.14,KE,1673658848
mackay,-21.15,149.2,23.71,91,100,18.21,AU,1673658849
acari,-15.4311,-74.6158,22.89,75,1,3.2,PE,1673658850
chanika,-5.4167,38.0167,19.8,93,94,3.04,TZ,1673658851
muscat,23.6139,58.5922,16.01,44,0,4.63,OM,1673658601
umm kaddadah,13.6017,26.6876,14.19,22,9,13.2,SD,1673658853
muravlenko,63.7898,74.523,-15.35,97,98,9.82,RU,1673658854
turbat,26.0023,63.044,5.55,14,0,19.48,PK,1673658855
fort wellington,6.4,-57.6,24.38,87,35,9.13,GY,1673658856
gawler,-34.6,138.7333,40.05,15,92,12.71,AU,1673658857
mareeba,-17.0,145.4333,26.4,90,100,3.78,AU,1673658858
navoi,40.0844,65.3792,-18.29,71,2,11.5,UZ,1673658859
owando,-0.4819,15.8999,21.54,79,14,1.88,CG,1673658860
mudon,16.2578,97.7164,19.51,86,0,4.34,MM,1673658861
nola,40.922,14.5329,12.74,85,77,1.21,IT,1673658862
tura,25.5198,90.2201,12.83,48,0,2.91,IN,1673658863
guiratinga,-16.3494,-53.7583,21.28,91,100,2.46,BR,1673658864
riyadh,24.6877,46.7219,12.08,73,100,10.31,SA,1673658668
bubaque,11.2833,-15.8333,24.88,69,4,10.96,GW,1673658866
santa maria do suacui,-18.1903,-42.4142,20.89,96,100,1.99,BR,1673658868
kvarkeno,52.0833,59.725,-17.78,91,14,10.74,RU,1673658869
tselinnoye,53.0833,85.6667,-13.73,91,100,15.03,RU,1673658870
berlevag,70.8578,29.0864,2.0,69,21,23.02,NO,1673658871
saldanha,-33.0117,17.9442,17.75,91,91,17.76,ZA,1673658872
north atlanta,33.8651,-84.3366,4.05,72,100,14.97,US,1673658874
fukuma,33.7667,130.4667,17.94,95,100,4.36,JP,1673658875
booue,-0.0921,11.9385,22.99,83,42,1.39,GA,1673658875
beira,-19.8436,34.8389,24.16,81,5,1.68,MZ,1673658877
khorixas,-20.3667,14.9667,17.73,61,0,4.72,NA,1673658878
desnogorsk,54.1508,33.2815,-5.51,92,98,9.19,RU,1673658879
phimai,15.2232,102.4947,24.05,58,1,3.78,TH,1673658879
flin flon,54.7682,-101.865,-10.99,97,100,5.35,CA,1673658880
ketchikan,55.3422,-131.6461,5.26,93,100,4.61,US,1673658881
eravur,7.7733,81.6095,23.81,80,100,6.38,LK,1673658882
udachnyy,66.4167,112.4,-49.16,100,94,1.95,RU,1673658883
ferrol,43.4832,-8.2369,14.29,83,100,17.05,ES,1673658884
vetluzhskiy,58.3902,45.4654,-7.67,93,100,9.17,RU,1673658885
honiara,-9.4333,159.95,25.56,90,100,4.14,SB,1673658885
aksarka,66.5606,67.7975,-17.67,96,100,4.21,RU,1673658886
dorogobuzh,54.915,33.2972,-4.81,89,94,10.09,RU,1673658887
jalu,29.0331,21.5482,12.2,73,5,8.88,LY,1673658888
gryfice,53.9165,15.2003,9.46,80,100,22.79,PL,1673658889
kwale,5.7063,6.4374,22.94,93,92,3.02,NG,1673658890
viedma,-40.8135,-62.9967,18.29,51,0,9.4,AR,1673658891
anadyr,64.75,177.4833,-28.49,97,15,4.81,RU,1673658892
tecoanapa,16.5167,-98.75,25.44,72,0,7.63,MX,1673658893
saint-pierre,-21.3393,55.4781,24.95,73,0,8.05,RE,1673658894
coihaique,-45.5752,-72.0662,12.97,62,75,3.44,CL,1673658852
coquimbo,-29.9533,-71.3436,16.85,82,0,8.05,CL,1673658896
matola,-25.9622,32.4589,25.97,89,75,2.3,MZ,1673658897
champerico,14.3,-91.9167,26.7,75,7,5.26,GT,1673658898
jertih,5.7336,102.4897,24.31,90,62,3.15,MY,1673658900
elista,46.3078,44.2558,-3.71,86,93,17.9,RU,1673658901
gambela,8.25,34.5833,25.42,52,100,2.39,ET,1673658902
springbok,-29.6643,17.8865,19.63,39,9,0.69,ZA,1673658903
el dorado,38.7666,-120.5177,6.77,96,100,1.01,US,1673658904
yueyang,29.3333,113.0919,7.69,70,100,21.5,CN,1673658905
tolaga bay,-38.3667,178.3,19.18,56,14,10.63,NZ,1673658906
ailigandi,9.2333,-78.0167,25.98,86,100,14.23,PA,1673658907
krasnoselkup,65.7,82.4667,-27.52,94,100,13.89,RU,1673658908
petukhovo,55.0692,67.9019,-10.11,76,21,15.84,RU,1673658909
blagoyevo,63.3667,47.9167,-4.65,93,98,8.37,RU,1673658910
ostrovnoy,68.0531,39.5131,1.09,84,100,18.52,RU,1673658911
tateyama,34.9833,139.8667,16.96,94,75,17.27,JP,1673658912
san luis,-33.295,-66.3356,22.33,28,1,10.16,AR,1673658692
boyolangu,-8.1181,111.8935,27.15,75,15,4.45,ID,1673658914
puerto cabezas,14.0351,-83.3888,23.67,82,98,11.36,NI,1673658915
waipawa,-41.4122,175.5153,15.62,69,63,7.4,NZ,1673658916
killybegs,54.6333,-8.45,8.27,83,100,20.31,IE,1673658917
urumqi,43.801,87.6005,-24.47,84,0,0.0,CN,1673658721
san rafael,-34.6177,-68.3301,25.55,26,0,12.64,AR,1673658891
buala,-8.145,159.5921,25.9,85,100,4.99,SB,1673658919
namwala,-15.7504,26.4384,17.55,98,98,1.59,ZM,1673658920
orotukan,62.2667,151.7,-33.94,97,100,4.76,RU,1673658921
balkanabat,39.5108,54.3671,-4.64,38,100,19.8,TM,1673658922
natal,-5.795,-35.2094,26.36,83,20,10.36,BR,1673658923
mlonggo,-6.5333,110.7,27.41,74,87,2.1,ID,1673658924
santa marta,11.2408,-74.199,28.03,72,20,9.22,CO,1673658925
fasa,28.9383,53.6482,0.58,93,0,0.0,IR,1673658935
matara,5.9485,80.5353,22.13,87,64,3.74,LK,1673658936
sao filipe,14.8961,-24.4956,22.89,65,2,4.61,CV,1673658937
terrace,54.5163,-128.6035,1.95,100,100,3.44,CA,1673658928
yumen,40.2833,97.2,-15.5,63,7,6.91,CN,1673658938
egvekinot,66.3167,-179.1667,-24.01,88,11,15.95,RU,1673658939
kaihua,23.3687,104.28,12.66,70,0,3.2,CN,1673658940
madera,37.1666,-119.8343,14.89,87,90,8.41,US,1673658696
nemuro,43.3236,145.575,1.48,97,100,16.35,JP,1673658942
misratah,32.3754,15.0925,15.41,76,74,10.49,LY,1673658942
thinadhoo,0.5333,72.9333,26.76,64,100,10.71,MV,1673658943
khudumelapye,-23.8833,24.75,20.25,36,0,5.19,BW,1673658681
mbandaka,0.0487,18.2603,21.75,67,60,1.41,CD,1673658945
morgan city,29.6994,-91.2068,9.44,49,0,9.22,US,1673658402
