City,Lat,Lng,Max Temp,Humidity,Cloudiness,Wind Speed,Country,Date
qaanaaq,77.484,-69.3632,35.38,67,0,5.28,GL,1659856722
albany,42.6001,-73.9662,75.72,93,61,2.91,US,1659856453
bredasdorp,-34.5322,20.0403,57.15,85,22,12.75,ZA,1659856723
kapaa,22.0752,-159.319,80.92,85,100,3.44,US,1659856724
lavrentiya,65.5833,-171.0,47.26,85,94,8.9,RU,1659856725
mataura,-46.1927,168.8643,35.47,97,100,6.76,NZ,1659856726
shimoda,34.6667,138.95,86.36,77,40,7.54,JP,1659856727
mar del plata,-38.0023,-57.5575,44.94,77,75,2.3,AR,1659856727
alyangula,-13.8483,136.4192,79.74,67,0,15.28,AU,1659856728
anadyr,64.75,177.4833,59.5,82,40,13.42,RU,1659856729
filadelfia,39.9523,-75.1638,80.62,88,75,8.05,US,1659856506
pontianak,-0.0333,109.3333,89.58,55,40,13.8,ID,1659856731
aksaray,38.3726,34.0254,81.0,38,0,8.66,TR,1659856731
saint-pierre,-21.3393,55.4781,77.92,72,100,9.22,RE,1659856732
vostok,46.4856,135.8833,82.27,46,100,2.59,RU,1659856733
rikitea,-23.1203,-134.9692,70.2,67,100,27.18,PF,1659856734
victoria,22.2855,114.1577,93.96,88,59,1.01,HK,1659856735
faanui,-16.4833,-151.75,77.76,74,100,23.11,PF,1659856736
coquimbo,-29.9533,-71.3436,53.33,87,75,2.3,CL,1659856737
hilo,19.7297,-155.09,74.93,90,75,1.99,US,1659856599
vila franca do campo,37.7167,-25.4333,72.01,88,29,4.92,PT,1659856738
caravelas,-17.7125,-39.2481,66.34,95,12,3.29,BR,1659856739
tuktoyaktuk,69.4541,-133.0374,42.66,88,100,19.42,CA,1659856740
guerrero negro,27.9769,-114.0611,71.47,87,97,5.44,MX,1659856741
wanning,18.8003,110.3967,86.07,78,100,10.4,CN,1659856742
carnarvon,-24.8667,113.6333,69.08,49,0,15.14,AU,1659856742
ribeira grande,38.5167,-28.7,72.0,94,75,20.71,PT,1659856743
yellowknife,62.456,-114.3525,57.72,100,75,4.61,CA,1659856529
jurm,36.8648,70.8342,84.51,21,0,6.89,AF,1659856745
kansanshi,-12.0951,26.4273,66.04,41,0,9.35,ZM,1659856746
vao,-22.6667,167.4833,74.91,81,99,11.12,NC,1659856746
itaqui,-29.1253,-56.5531,46.08,95,2,8.08,BR,1659856634
ushuaia,-54.8,-68.3,31.66,80,0,2.3,AR,1659856748
lebu,-37.6167,-73.65,48.54,91,95,1.77,CL,1659856749
tasiilaq,65.6145,-37.6368,46.56,94,100,16.06,GL,1659856749
saint-philippe,-21.3585,55.7679,74.79,66,0,6.89,RE,1659856750
mindelo,16.8901,-24.9804,76.55,94,75,8.05,CV,1659856752
cidreira,-30.1811,-50.2056,55.38,94,100,10.83,BR,1659856753
pilani,28.3684,75.6041,96.37,44,100,5.32,IN,1659856753
ilulissat,69.2167,-51.1,42.82,93,100,1.14,GL,1659856754
kabompo,-13.5927,24.2008,68.16,33,0,7.96,ZM,1659856755
port-gentil,-0.7193,8.7815,75.16,83,75,10.36,GA,1659856756
pangody,65.85,74.4859,65.14,54,100,8.39,RU,1659856757
nome,64.5011,-165.4064,50.07,87,100,11.5,US,1659856757
tongling,30.95,117.7833,97.92,47,100,10.45,CN,1659856758
usinsk,65.9939,57.5281,82.42,39,0,18.57,RU,1659856760
castro,-24.7911,-50.0119,53.69,98,100,3.53,BR,1659856520
longyearbyen,78.2186,15.6401,48.04,93,75,8.05,SJ,1659856761
butaritari,3.0707,172.7902,81.93,77,100,12.37,KI,1659856763
hamilton,39.1834,-84.5333,73.8,92,0,5.75,US,1659856558
ahipara,-35.1667,173.1667,56.12,95,100,2.55,NZ,1659856764
yinchuan,38.4681,106.2731,95.94,28,77,8.97,CN,1659856765
aklavik,68.2191,-135.0107,45.84,80,100,11.74,CA,1659856766
yulara,-25.2406,130.9889,67.89,20,0,8.14,AU,1659856767
bhatkal,13.9667,74.5667,78.48,90,100,14.09,IN,1659856768
port blair,11.6667,92.75,86.04,74,100,18.41,IN,1659856769
sabro,56.2133,10.0344,57.85,81,100,10.13,DK,1659856770
bluff,-46.6,168.3333,35.8,75,100,21.72,NZ,1659856770
navashino,55.5292,42.2003,82.24,39,0,6.24,RU,1659856771
san quintin,30.4833,-115.95,71.11,87,81,6.04,MX,1659856772
beringovskiy,63.05,179.3167,53.17,89,100,2.51,RU,1659856773
valle de allende,26.9333,-105.4,70.83,52,33,8.41,MX,1659856774
fortuna,40.5982,-124.1573,62.92,90,100,3.44,US,1659856775
braintree,51.8782,0.5529,64.76,82,8,5.93,GB,1659856776
atuona,-9.8,-139.0333,77.25,72,21,17.9,PF,1659856777
cape town,-33.9258,18.4232,60.39,77,0,3.44,ZA,1659856502
cayenne,4.9333,-52.3333,76.08,1,0,0.0,GF,1659856778
esperance,-33.8667,121.9,55.2,83,100,11.61,AU,1659856779
carnot,4.9409,15.8665,73.13,89,73,3.94,CF,1659856780
umm lajj,25.0213,37.2685,89.87,61,58,5.23,SA,1659856781
belmonte,-15.8631,-38.8828,71.62,89,72,4.32,BR,1659856781
puerto ayora,-0.7393,-90.3518,68.56,94,97,7.0,EC,1659856782
tuatapere,-46.1333,167.6833,36.36,89,88,9.08,NZ,1659856721
new norfolk,-42.7826,147.0587,47.88,68,100,2.68,AU,1659856784
nikolskoye,59.7035,30.7861,66.87,60,0,8.34,RU,1659856785
ca mau,9.1769,105.15,86.83,61,100,12.08,VN,1659856785
gat,31.61,34.7642,88.39,100,0,5.97,IL,1659856740
hobart,-42.8794,147.3294,48.22,81,40,5.75,AU,1659856532
lincoln,40.8,-96.667,86.29,62,0,11.5,US,1659856676
sitka,57.0531,-135.33,57.09,88,100,9.22,US,1659856788
constitucion,-35.3333,-72.4167,51.22,91,100,13.4,CL,1659856557
pevek,69.7008,170.3133,32.34,94,100,19.77,RU,1659856789
mahina,-17.5065,-149.489,74.97,78,40,3.44,PF,1659856790
rocha,-34.4833,-54.3333,43.0,89,100,2.98,UY,1659856791
waitara,-38.925,174.25,57.49,85,74,9.17,NZ,1659856792
hithadhoo,-0.6,73.0833,82.58,71,100,6.93,MV,1659856786
valparaiso,-33.0393,-71.6273,52.48,100,75,4.61,CL,1659856793
namibe,-15.1961,12.1522,63.66,80,7,7.67,AO,1659856794
haines junction,60.7522,-137.5108,49.95,66,83,6.91,CA,1659856795
cherskiy,68.75,161.3,43.52,56,10,16.11,RU,1659856796
zabaykalsk,49.6333,117.3167,69.73,35,5,18.54,RU,1659856797
maiduguri,11.8464,13.1603,79.77,70,100,13.53,NG,1659856798
biltine,14.5333,20.9167,81.46,62,74,17.11,TD,1659856799
daru,-9.0763,143.2092,78.24,90,37,15.77,PG,1659856799
wajid,3.8093,43.2471,80.98,42,100,23.87,SO,1659856801
bismarck,46.8083,-100.7837,58.84,85,40,4.61,US,1659856645
hobyo,5.3505,48.5268,81.63,63,56,24.61,SO,1659856802
chokurdakh,70.6333,147.9167,55.81,40,100,13.71,RU,1659856804
raga,8.4596,25.678,74.75,85,100,6.42,SS,1659856805
sabha,27.0377,14.4283,86.52,33,0,12.86,LY,1659856806
apollonia,36.9716,24.7231,74.79,81,0,23.58,GR,1659856807
punta arenas,-53.15,-70.9167,33.91,93,100,8.05,CL,1659856539
laguna,38.421,-121.4238,71.89,73,0,8.05,US,1659856763
mahibadhoo,3.7833,72.9667,82.33,76,85,14.92,MV,1659856809
ciudad bolivar,8.1222,-63.5497,75.88,90,3,7.92,VE,1659856810
kieta,-6.2167,155.6333,81.99,80,6,6.51,PG,1659856811
tonekabon,36.8163,50.8738,85.95,65,28,8.93,IR,1659856812
willmar,45.1219,-95.0433,66.22,77,0,11.5,US,1659856813
tommot,58.9564,126.2925,66.02,66,99,5.01,RU,1659856814
ponta do sol,32.6667,-17.1,73.0,81,4,5.64,PT,1659856815
kruisfontein,-34.0033,24.7314,56.88,87,93,19.01,ZA,1659856815
bom jardim,-7.7958,-35.5872,65.35,96,67,3.13,BR,1659856816
jamestown,42.097,-79.2353,72.99,73,75,4.61,US,1659856552
avarua,-21.2078,-159.775,69.85,88,100,13.8,CK,1659856818
ancud,-41.8697,-73.8203,41.23,82,100,7.23,CL,1659856763
vaini,-21.2,-175.2,73.56,100,40,3.44,TO,1659856819
saint george,37.1041,-113.5841,86.95,37,0,5.99,US,1659856529
tiksi,71.6872,128.8694,42.49,92,100,8.48,RU,1659856821
provideniya,64.3833,-173.3,47.91,96,100,8.43,RU,1659856821
labuhan,-6.8844,112.2051,82.58,69,62,9.15,ID,1659856822
mayumba,-3.432,10.6554,69.21,84,94,7.4,GA,1659856823
port elizabeth,-33.918,25.5701,59.29,88,100,19.57,ZA,1659856824
rawlins,41.7911,-107.2387,59.36,82,0,0.0,US,1659856825
suntar,62.1444,117.6319,60.22,60,100,6.02,RU,1659856826
kroya,-7.6331,109.2461,80.74,72,66,12.03,ID,1659856827
manta,-0.95,-80.7333,71.38,88,100,4.61,EC,1659856732
patacamaya,-17.2333,-67.9167,39.79,33,100,1.61,BO,1659856828
mumford,5.2618,-0.759,72.61,87,84,5.28,GH,1659856829
dahanu,19.9667,72.7333,84.76,76,99,10.0,IN,1659856831
thompson,55.7435,-97.8558,59.16,82,75,6.91,CA,1659856673
ibra,22.6906,58.5334,101.16,22,9,3.0,OM,1659856832
bitung,1.4451,125.1824,79.65,81,100,5.44,ID,1659856833
busselton,-33.65,115.3333,58.33,59,62,8.12,AU,1659856834
taihe,30.8712,105.3845,94.21,55,100,7.65,CN,1659856834
lagoa,39.05,-27.9833,73.83,80,18,3.83,PT,1659856835
grafenau,48.8577,13.3974,63.75,62,11,7.7,DE,1659856836
cozumel,20.5083,-86.9458,77.07,94,75,4.61,MX,1659856837
hermanus,-34.4187,19.2345,58.8,83,0,11.68,ZA,1659856838
georgetown,5.4112,100.3354,89.89,76,20,9.22,MY,1659856838
palmer,42.1584,-72.3287,76.86,82,0,6.91,US,1659856839
lorengau,-2.0226,147.2712,83.44,72,85,8.23,PG,1659856840
la romana,18.4273,-68.9728,78.13,88,98,13.49,DO,1659856841
ormara,25.2088,64.6357,82.24,84,76,10.74,PK,1659856842
sinnamary,5.3833,-52.95,75.42,88,66,7.54,GF,1659856843
preobrazheniye,42.9019,133.9064,77.72,82,88,4.79,RU,1659856844
stornoway,58.2093,-6.3865,55.92,97,75,6.91,GB,1659856668
chiautla,19.5333,-98.8833,60.94,80,100,3.42,MX,1659856845
sampit,-2.5333,112.95,90.61,43,17,3.96,ID,1659856847
bambous virieux,-20.3428,57.7575,77.25,69,75,13.8,MU,1659856848
klaksvik,62.2266,-6.589,52.72,89,82,8.08,FO,1659856848
placido de castro,-10.3353,-67.1856,71.1,97,100,1.32,BR,1659856849
waterloo,43.4668,-80.5164,71.78,99,0,4.61,CA,1659856645
bodden town,19.2833,-81.25,81.93,82,89,15.03,KY,1659856851
termiz,37.2242,67.2783,98.89,11,0,13.09,UZ,1659856852
magadan,59.5667,150.8,67.53,75,0,10.0,RU,1659856833
upernavik,72.7868,-56.1549,38.95,87,42,14.14,GL,1659856689
ukiah,39.1502,-123.2078,66.09,76,0,6.91,US,1659856854
eureka,40.8021,-124.1637,63.19,90,67,1.95,US,1659856855
bafra,41.5678,35.9069,83.3,56,31,6.69,TR,1659856856
la grande,45.3246,-118.0877,64.06,53,0,1.86,US,1659856784
byron bay,-28.65,153.6167,63.95,51,91,1.66,AU,1659856857
nelson bay,-32.7167,152.15,60.01,70,12,7.0,AU,1659856858
salalah,17.0151,54.0924,77.09,100,100,8.05,OM,1659856859
mosquera,4.7059,-74.2302,51.89,93,75,3.44,CO,1659856860
moose factory,51.2585,-80.6094,55.4,62,100,18.41,CA,1659856861
lutry,46.5024,6.6865,69.94,83,52,7.47,CH,1659856863
korhogo,9.45,-5.6333,68.67,88,0,3.85,CI,1659856864
havre-saint-pierre,50.2334,-63.5986,61.16,94,100,3.44,CA,1659856865
saskylakh,71.9167,114.0833,54.72,62,100,7.18,RU,1659856866
alofi,-19.0595,-169.9187,75.09,83,100,9.22,NU,1659856867
chitrakonda,18.1167,82.0833,73.0,96,100,3.2,IN,1659856868
mikhaylovka,50.06,43.2379,86.7,23,53,8.72,RU,1659856869
svetlyy,54.675,20.1347,66.25,61,97,10.89,RU,1659856870
nizwa,22.9333,57.5333,100.49,22,8,3.27,OM,1659856871
kastamonu,41.5,33.6667,71.62,49,1,1.7,TR,1659856871
kjollefjord,70.9457,27.3465,50.05,93,100,14.97,NO,1659856872
kavieng,-2.5744,150.7967,83.32,70,35,8.43,PG,1659856873
arti,56.4234,58.5328,78.85,49,97,4.63,RU,1659856874
seoul,37.5683,126.9778,88.99,79,75,10.36,KR,1659856800
sao joao da barra,-21.6403,-41.0511,69.58,86,65,8.84,BR,1659856875
talnakh,69.4865,88.3972,62.11,61,28,7.61,RU,1659856876
havoysund,70.9963,24.6622,50.23,86,100,12.44,NO,1659856877
tilichiki,60.4667,166.1,60.53,64,100,6.04,RU,1659856878
pafos,34.7667,32.4167,85.23,65,20,6.91,CY,1659856879
shieli,44.1667,66.75,87.12,26,100,6.55,KZ,1659856879
bom jesus,-9.0744,-44.3586,67.46,50,1,3.38,BR,1659856880
shihezi,44.3,86.0333,98.51,14,0,8.46,CN,1659856882
port alfred,-33.5906,26.891,58.17,96,100,10.0,ZA,1659856882
tocopilla,-22.092,-70.1979,59.05,62,0,4.61,CL,1659856883
temple,31.0982,-97.3428,81.0,76,0,9.22,US,1659856884
kaitangata,-46.2817,169.8464,38.98,76,100,9.15,NZ,1659856885
dunmore town,25.5,-76.65,82.83,74,10,16.84,BS,1659856886
talara,-4.5772,-81.2719,63.91,82,55,16.53,PE,1659856887
oussouye,12.485,-16.5469,78.89,90,100,5.39,SN,1659856887
baykit,61.67,96.37,73.22,43,77,12.17,RU,1659856888
khandyga,62.6667,135.6,61.32,85,100,3.74,RU,1659856890
barrow,71.2906,-156.7887,38.66,81,100,5.64,US,1659856764
barstow,34.8986,-117.0228,83.39,24,0,5.7,US,1659856891
itarema,-2.9248,-39.9167,74.48,92,22,11.77,BR,1659856892
praia da vitoria,38.7333,-27.0667,72.75,94,40,15.3,PT,1659856893
union,40.6334,-74.2663,82.38,85,0,13.8,US,1659856893
kodiak,57.79,-152.4072,54.91,62,0,8.05,US,1659856894
san patricio,28.017,-97.5169,84.88,81,6,11.68,US,1659856895
khatanga,71.9667,102.5,61.63,57,100,17.45,RU,1659856896
hambantota,6.1241,81.1185,85.89,62,100,22.26,LK,1659856897
iqaluit,63.7506,-68.5145,40.73,93,100,8.05,CA,1659856897
sesvete,45.8311,16.1164,71.19,57,0,9.22,HR,1659856898
ankang,32.68,109.0172,103.95,35,97,6.51,CN,1659856899
bay roberts,47.5999,-53.2648,63.52,96,100,3.0,CA,1659856900
vestmannaeyjar,63.4427,-20.2734,52.63,88,100,21.07,IS,1659856901
asau,46.4333,26.4,74.32,64,51,6.67,RO,1659856902
kunashak,55.7032,61.5498,82.92,54,100,6.73,RU,1659856902
vega de alatorre,20.0333,-96.6333,77.56,79,29,5.91,MX,1659856903
fairbanks,64.8378,-147.7164,53.6,91,75,10.36,US,1659856852
belyy yar,53.6039,91.3903,78.69,32,0,6.71,RU,1659856905
saldanha,-33.0117,17.9442,53.65,91,16,22.41,ZA,1659856905
erbaa,40.6689,36.5675,77.09,75,97,2.93,TR,1659856906
amudat,1.95,34.95,73.62,63,84,1.59,UG,1659856907
batangafo,7.3008,18.2833,70.36,97,100,5.37,CF,1659856908
gobabis,-22.45,18.9667,66.49,25,14,5.77,NA,1659856909
chifeng,42.2683,118.9636,85.41,56,92,12.46,CN,1659856909
vardo,70.3705,31.1107,49.98,100,75,13.8,NO,1659856910
luderitz,-26.6481,15.1594,57.99,79,100,9.55,NA,1659856911
east london,-33.0153,27.9116,58.14,100,100,13.8,ZA,1659856912
katsuura,35.1333,140.3,83.03,81,16,10.47,JP,1659856913
darnah,32.767,22.6367,83.5,61,0,24.32,LY,1659856913
olot,42.181,2.4901,79.09,51,8,2.08,ES,1659856914
zharkent,44.1628,80.0,95.16,17,3,5.66,KZ,1659856915
cabo san lucas,22.8909,-109.9124,84.51,81,20,5.55,MX,1659856679
lagos,6.5833,3.75,75.52,80,70,4.7,NG,1659856629
richards bay,-28.783,32.0377,70.18,77,28,9.26,ZA,1659856917
mahebourg,-20.4081,57.7,77.29,69,75,13.8,MU,1659856918
torbay,47.6666,-52.7314,62.76,93,40,8.05,CA,1659856919
kahului,20.8947,-156.47,79.84,71,0,6.91,US,1659856919
severo-kurilsk,50.6789,156.125,56.19,84,99,6.08,RU,1659856920
pauini,-7.7136,-66.9764,71.31,96,100,0.18,BR,1659856921
arraial do cabo,-22.9661,-42.0278,69.12,84,100,18.25,BR,1659856922
rurrenabaque,-14.4413,-67.5278,68.32,100,100,0.56,BO,1659856923
bose,45.4612,8.0137,75.74,75,85,2.55,IT,1659856924
sao filipe,14.8961,-24.4956,78.46,84,60,3.53,CV,1659856925
shenjiamen,29.9576,122.298,84.94,76,0,22.17,CN,1659856925
morlaix,48.5833,-4.0,65.21,82,0,9.22,FR,1659856926
catamarca,-28.4696,-65.7852,52.77,63,0,1.01,AR,1659856927
yenagoa,4.9247,6.2642,74.91,86,99,3.78,NG,1659856928
bani,18.2833,-70.3333,77.86,75,100,11.54,DO,1659856929
ozernovskiy,51.5,156.5167,55.85,86,100,2.39,RU,1659856930
de-kastri,51.4667,140.7833,61.47,96,100,7.96,RU,1659856931
sakhnovshchyna,49.1517,35.872,82.47,31,0,10.0,UA,1659856932
pisco,-13.7,-76.2167,59.05,88,75,1.14,PE,1659856933
chuy,-33.6971,-53.4616,47.01,87,73,8.32,UY,1659856933
esmeraldas,-19.7625,-44.3139,65.26,83,94,5.39,BR,1659856934
kavaratti,10.5669,72.642,80.2,84,100,22.88,IN,1659856936
russell,32.3502,-85.1999,76.28,100,0,0.0,US,1659856936
kankaanpaa,61.8,22.4167,57.96,65,39,10.8,FI,1659856937
port lincoln,-34.7333,135.8667,55.99,56,6,11.23,AU,1659856938
dire,12.2833,-10.9667,72.16,96,84,1.48,ML,1659856939
pitea,65.3172,21.4794,57.29,56,100,11.07,SE,1659856940
goroka,-6.0834,145.3873,69.75,71,100,2.64,PG,1659856941
grindavik,63.8424,-22.4338,51.75,93,100,23.02,IS,1659856941
abha,18.2164,42.5053,75.45,47,0,9.22,SA,1659856942
tomatlan,19.9333,-105.25,74.1,95,100,3.06,MX,1659856943
marawi,7.9986,124.2928,72.59,93,96,1.92,PH,1659856944
igunga,-4.2833,33.8833,73.17,38,6,12.86,TZ,1659856651
broome,42.2506,-75.833,74.17,92,13,3.24,US,1659856946
llanes,43.4198,-4.7549,71.6,75,7,4.68,ES,1659856947
hasaki,35.7333,140.8333,88.29,81,64,11.61,JP,1659856948
mae ramat,16.984,98.5166,84.52,95,100,3.18,TH,1659856949
shenzhen,22.5455,114.0683,93.85,74,19,11.88,CN,1659856731
mogadishu,2.0371,45.3438,78.24,68,62,19.01,SO,1659856734
pasni,25.2631,63.471,81.66,84,51,10.83,PK,1659856951
san javier,37.8063,-0.8374,83.98,55,0,2.3,ES,1659856952
tutoia,-2.7619,-42.2744,75.52,87,5,10.65,BR,1659856952
nuuk,64.1835,-51.7216,39.81,100,100,5.75,GL,1659856953
coahuayana,18.7333,-103.6833,74.84,94,97,3.87,MX,1659856954
warrnambool,-38.3833,142.4833,51.35,62,14,6.67,AU,1659856955
clyde river,70.4692,-68.5914,37.63,100,100,16.11,CA,1659856956
boa vista,2.8197,-60.6733,78.78,83,0,3.44,BR,1659856955
beirut,33.8889,35.4944,87.39,58,20,10.36,LB,1659856689
bensonville,6.4461,-10.6125,72.95,90,98,4.43,LR,1659856958
tautira,-17.7333,-149.15,75.31,75,99,23.15,PF,1659856959
khiri mat,16.8333,99.8,86.04,90,100,5.14,TH,1659856959
portland,45.5234,-122.6762,75.25,56,0,5.01,US,1659856827
canutama,-6.5339,-64.3831,71.46,98,76,0.45,BR,1659856961
matara,5.9485,80.5353,83.77,69,96,15.55,LK,1659856962
antalaha,-14.9003,50.2788,75.22,54,1,7.85,MG,1659856963
hualmay,-11.0964,-77.6139,60.75,87,99,10.0,PE,1659856964
phibun mangsahan,15.2447,105.2291,87.1,73,100,9.22,TH,1659856965
reconquista,-29.15,-59.65,45.72,95,0,5.82,AR,1659856965
nuevo emperador,8.9989,-79.7272,74.7,100,100,1.14,PA,1659856966
taseyevo,57.2169,94.8978,72.18,48,100,6.49,RU,1659856967
sharjah,25.3573,55.4033,109.38,24,0,6.91,AE,1659856968
tambura,5.6,27.4667,74.48,84,100,5.84,SS,1659856969
smithers,54.7804,-127.1743,55.72,100,20,2.3,CA,1659856969
kudahuvadhoo,2.6708,72.8944,82.56,75,89,11.81,MV,1659856970
alice springs,-23.7,133.8833,69.35,21,0,11.5,AU,1659856971
neryungri,56.6709,124.6491,62.29,72,100,7.81,RU,1659856972
nemsova,48.967,18.1189,68.77,68,47,10.87,SK,1659856973
rawson,-43.3002,-65.1023,42.49,69,100,11.48,AR,1659856974
thinadhoo,0.5333,72.9333,82.54,73,100,6.76,MV,1659856974
weligama,5.9667,80.4167,82.85,71,98,14.83,LK,1659856975
kushima,31.4583,131.2333,88.83,66,51,9.24,JP,1659856976
chapais,49.7834,-74.8492,62.38,87,100,12.59,CA,1659856977
gravdal,68.1214,13.5031,51.98,82,100,15.12,NO,1659856978
ust-kan,50.9276,84.761,71.73,44,100,3.2,RU,1659856979
tanout,14.9709,8.8879,82.78,56,96,16.98,NE,1659856980
balkhash,46.844,74.9804,79.41,29,20,11.18,KZ,1659856981
bethel,41.3712,-73.414,79.16,92,24,4.94,US,1659856981
inirida,3.8653,-67.9239,71.28,99,100,2.98,CO,1659856982
komsomolskiy,40.4272,71.7189,98.04,16,0,9.66,UZ,1659856983
ilo,-17.6394,-71.3375,59.02,84,67,7.4,PE,1659856984
dikson,73.5069,80.5464,41.92,93,100,12.66,RU,1659856986
serenje,-13.2325,30.2352,64.94,42,0,7.99,ZM,1659856986
venice,27.0998,-82.4543,79.99,91,0,6.91,US,1659856833
kourou,5.1552,-52.6478,76.1,89,66,5.95,GF,1659856988
jishou,28.3167,109.7167,95.94,46,60,6.89,CN,1659856989
imbituba,-28.24,-48.6703,60.85,94,100,8.05,BR,1659856989
kargasok,59.0556,80.8572,70.9,59,61,7.85,RU,1659856990
maamba,-17.3667,27.15,71.69,33,0,5.06,ZM,1659856991
yasnyy,51.0333,59.8742,78.93,33,27,15.52,RU,1659856992
rach gia,10.0167,105.0833,81.61,78,100,15.32,VN,1659856993
bengkulu,-3.8004,102.2655,83.84,64,1,7.76,ID,1659856994
berlevag,70.8578,29.0864,50.0,93,100,18.41,NO,1659856995
mana,5.6592,-53.7767,74.71,91,30,6.82,GF,1659856996
koumac,-20.5667,164.2833,74.82,84,35,4.65,NC,1659856996
ondjiva,-17.0667,15.7333,65.75,25,0,7.67,AO,1659856997
sao jose da coroa grande,-8.8978,-35.1478,73.63,89,69,9.31,BR,1659856998
yarim,14.298,44.3779,63.18,53,99,1.81,YE,1659856999
xai-xai,-25.0519,33.6442,74.43,54,1,9.37,MZ,1659857000
agucadoura,41.4318,-8.7804,66.24,90,17,0.45,PT,1659857001
karratha,-20.7377,116.8463,78.69,19,0,8.25,AU,1659857001
kamaishi,39.2667,141.8833,77.5,85,100,13.35,JP,1659857002
colac,-38.3333,143.5833,52.18,69,39,3.36,AU,1659857003
geraldton,-28.7667,114.6,64.81,77,75,10.36,AU,1659856772
valandovo,41.3169,22.5611,89.96,29,1,9.95,MK,1659857004
salaga,8.5508,-0.5188,73.08,82,11,5.41,GH,1659856819
kabugao,18.0217,121.1842,83.98,85,100,1.77,PH,1659857006
rayong,12.8333,101.4333,86.68,94,100,9.73,TH,1659857007
fort-shevchenko,44.5086,50.263,83.61,45,92,3.36,KZ,1659857008
lompoc,34.6391,-120.4579,60.78,90,0,23.0,US,1659857008
norman wells,65.282,-126.8329,51.84,76,75,4.61,CA,1659857009
lakselv,70.0513,24.9718,48.02,87,75,23.02,NO,1659857010
leshukonskoye,64.8989,45.7622,82.45,42,0,13.44,RU,1659857011
auki,-8.7676,160.7034,80.8,78,100,2.19,SB,1659857012
nalut,30.3333,10.85,86.94,23,0,7.02,LY,1659857014
souillac,-20.5167,57.5167,77.38,69,75,13.8,MU,1659857014
krosno odrzanskie,52.0549,15.0988,69.78,43,44,3.56,PL,1659857015
madras,13.0878,80.2785,89.58,70,75,14.97,IN,1659856815
piraquara,-25.4417,-49.0633,57.31,79,100,8.05,BR,1659857017
homer,59.6425,-151.5483,55.27,84,0,6.91,US,1659857018
yar-sale,66.8333,70.8333,73.56,55,57,15.3,RU,1659857019
nyurba,63.2842,118.3319,58.93,58,100,5.5,RU,1659857020
yumen,40.2833,97.2,79.75,33,93,10.42,CN,1659857020
nanortalik,60.1432,-45.2371,42.6,92,80,15.08,GL,1659857021
nemuro,43.3236,145.575,64.44,92,85,13.82,JP,1659857022
grand-santi,4.25,-54.3833,70.14,99,52,2.19,GF,1659857023
mirnyy,62.5353,113.9611,54.46,76,100,8.16,RU,1659857024
laela,-8.5667,32.05,65.66,36,6,8.37,TZ,1659857024
henties bay,-22.116,14.2845,57.15,88,72,8.19,NA,1659857025
kachug,53.9606,105.8817,61.84,52,74,8.57,RU,1659857026
zuwarah,32.9312,12.082,84.38,56,0,8.72,LY,1659857027
barra do garcas,-15.89,-52.2567,75.65,35,97,3.78,BR,1659857028
rockport,28.0206,-97.0544,85.05,84,40,9.22,US,1659857028
mortka,59.3322,66.0214,78.44,46,100,5.01,RU,1659857030
llandrindod wells,52.2416,-3.3787,59.94,75,6,2.17,GB,1659857031
gaziantep,37.0594,37.3825,87.73,37,0,9.22,TR,1659857015
puerto escondido,15.85,-97.0667,78.06,88,98,4.16,MX,1659857032
garowe,8.4054,48.4845,82.63,40,17,27.02,SO,1659857033
gulmarg,34.049,74.3921,69.33,64,39,1.3,IN,1659857034
kristiinankaupunki,62.2743,21.376,57.36,69,67,15.73,FI,1659857034
ringebu,61.5167,10.1667,51.85,67,100,0.69,NO,1659857035
bonavista,48.6499,-53.1147,61.95,91,100,13.4,CA,1659857036
college,64.8569,-147.8028,53.58,91,75,10.36,US,1659856809
nago,26.5881,127.9761,90.45,64,2,6.53,JP,1659857037
perur,10.9667,76.9,80.29,78,75,20.71,IN,1659857038
waipawa,-41.4122,175.5153,49.26,83,0,8.39,NZ,1659857039
tazovskiy,67.4667,78.7,57.81,65,100,11.18,RU,1659857040
atambua,-9.1061,124.8925,82.13,60,11,1.66,ID,1659857042
lakatoro,-16.0999,167.4164,79.27,80,16,7.27,VU,1659857043
naze,28.3667,129.4833,86.92,70,33,3.15,JP,1659857044
santa cruz,-17.8,-63.1667,69.26,94,75,8.05,BO,1659857044
dillon,34.4166,-79.3712,78.26,94,12,2.8,US,1659857045
legionowo,52.4015,20.9266,67.06,72,20,4.61,PL,1659857046
agadez,19.75,10.25,93.72,15,99,13.51,NE,1659857047
majene,-3.5403,118.9707,80.98,70,96,5.28,ID,1659857048
gawler,-34.6,138.7333,58.21,73,3,7.02,AU,1659856898
subiaco,41.9254,13.0941,86.56,50,0,2.06,IT,1659857049
ledyard,41.4398,-72.0142,77.18,77,15,10.85,US,1659857050
erenhot,43.6475,111.9767,81.88,32,2,12.62,CN,1659857051
sohag,26.557,31.6948,91.29,27,12,16.62,EG,1659857052
khrebtovaya,56.7032,104.2494,61.3,55,100,10.25,RU,1659857052
abalak,58.1286,68.5944,78.06,40,49,8.88,RU,1659857053
steamboat springs,40.485,-106.8317,65.7,63,0,8.05,US,1659856838
fort nelson,58.8053,-122.7002,60.39,77,40,3.44,CA,1659857055
iki-burul,45.8208,44.6472,82.76,38,5,6.35,RU,1659857056
zeya,53.75,127.2667,68.58,63,100,2.66,RU,1659857057
wajima,37.4,136.9,90.28,66,20,11.5,JP,1659857059
wenling,28.3669,121.36,87.85,69,0,14.38,CN,1659857060
riyadh,24.6877,46.7219,107.74,16,5,14.72,SA,1659856816
srednekolymsk,67.45,153.6833,59.36,42,100,11.61,RU,1659857061
izhma,65.0083,53.9113,84.04,35,0,11.25,RU,1659857062
the valley,18.217,-63.0578,81.1,82,14,24.67,AI,1659857063
kushmurun,52.4503,64.6311,80.13,42,47,12.84,KZ,1659857063
petropavlovsk-kamchatskiy,53.0452,158.6483,61.39,67,75,6.71,RU,1659856894
dengzhou,37.8086,120.7508,90.45,66,87,11.9,CN,1659857065
olafsvik,64.8945,-23.7142,51.4,90,100,18.43,IS,1659857066
tura,25.5198,90.2201,90.19,58,25,3.49,IN,1659857066
taoudenni,22.6783,-3.9836,96.48,16,6,9.19,ML,1659857067
qarqin,37.4185,66.0436,98.28,13,0,10.67,AF,1659857068
paciran,-6.8767,112.3761,83.35,66,48,8.14,ID,1659857069
leningradskiy,69.3833,178.4167,31.96,92,100,17.25,RU,1659857070
bohodukhiv,50.1647,35.5276,79.84,40,2,9.22,UA,1659857070
konstantinovka,49.6167,127.9833,67.03,93,100,9.48,RU,1659857071
njombe,-9.3333,34.7667,58.17,53,39,10.71,TZ,1659857072
dingle,10.9995,122.6711,79.09,86,100,2.01,PH,1659857073
itoman,26.1247,127.6694,90.37,66,40,12.66,JP,1659857074
port hardy,50.6996,-127.4199,57.2,93,0,3.44,CA,1659857074
quartucciu,39.2519,9.1794,86.25,69,0,18.01,IT,1659857075
moche,-8.1711,-79.0092,61.11,92,99,5.48,PE,1659857076
hovd,48.0056,91.6419,75.29,25,20,8.59,MN,1659857077
rafraf,37.1904,10.1837,80.92,72,0,17.29,TN,1659857078
ayr,55.4627,-4.6339,59.5,88,100,19.57,GB,1659856847
lebyazhye,55.2689,66.4947,77.63,51,71,12.28,RU,1659857079
maragheh,37.3917,46.2398,84.47,37,20,9.22,IR,1659857080
krasnyy,54.5678,31.4333,55.13,97,100,9.86,RU,1659857081
mehamn,71.0357,27.8492,49.95,93,100,14.97,NO,1659857082
vila,42.0304,-8.1588,54.48,64,34,2.08,PT,1659857082
teculutan,14.9833,-89.7167,72.72,97,89,2.17,GT,1659857083
sisimiut,66.9395,-53.6735,42.04,93,100,6.31,GL,1659857084
umba,66.6871,34.3429,56.93,80,36,16.46,RU,1659857085
omboue,-1.5746,9.2618,72.05,78,100,6.2,GA,1659857086
maningrida,-12.0667,134.2667,86.27,53,1,14.14,AU,1659857086
luanda,-8.8368,13.2343,68.0,83,75,5.75,AO,1659856943
swan hill,-35.3378,143.5544,56.77,58,15,4.76,AU,1659857088
carlsbad,33.1581,-117.3506,79.7,90,0,3.44,US,1659857089
taltal,-25.4,-70.4833,59.36,53,0,3.71,CL,1659857089
tefe,-3.3542,-64.7114,75.02,84,57,0.22,BR,1659857090
lubbock,33.6001,-101.8338,80.85,47,0,13.8,US,1659857091
saint-francois,46.4154,3.9054,67.68,55,0,3.44,FR,1659857092
zhangye,38.9342,100.4517,88.88,28,87,4.56,CN,1659857093
kerema,-7.9631,145.7785,81.07,83,100,6.04,PG,1659857093
tigil,57.8,158.6667,64.6,57,0,8.21,RU,1659857094
tetzoyocan,18.75,-97.7,53.53,89,100,7.29,MX,1659857095
cuenca,-2.8833,-78.9833,55.53,82,96,3.44,EC,1659857058
san agustin,20.5333,-103.4667,64.51,77,75,0.0,MX,1659857096
viedma,-40.8135,-62.9967,40.82,81,100,8.03,AR,1659856910
paita,-5.0892,-81.1144,63.0,82,87,12.84,PE,1659857098
sola,-13.8833,167.55,81.03,77,100,14.5,VU,1659857099
mackenzie,55.2999,-123.1698,61.02,72,75,2.3,CA,1659857099
kiruna,67.8557,20.2251,50.92,62,100,11.5,SE,1659857100
flin flon,54.7682,-101.865,55.22,74,100,7.65,CA,1659857101
monteagudo,-19.8167,-63.9833,56.23,84,27,3.44,BO,1659857102
valle de bravo,19.1833,-100.1333,57.6,92,100,6.8,MX,1659857103
ossora,59.2353,163.0719,65.28,81,100,5.19,RU,1659857104
vredendal,-31.6683,18.5012,56.68,76,2,18.97,ZA,1659857105
durango,24.8333,-104.8333,65.08,60,82,4.38,MX,1659856923
te anau,-45.4167,167.7167,31.53,95,54,6.69,NZ,1659857107
maragogi,-9.0122,-35.2225,73.44,89,80,8.23,BR,1659857108
whitehorse,60.7161,-135.0538,50.81,90,100,3.44,CA,1659857109
lasa,46.6166,10.7002,65.28,85,100,1.92,IT,1659857110
codrington,-38.2667,141.9667,50.4,67,11,5.84,AU,1659857110
moree,-29.4667,149.85,54.18,62,65,9.19,AU,1659857111
kampong chhnang,12.1667,104.55,75.25,94,100,4.7,KH,1659857112
purwodadi,-7.0868,110.9158,88.84,49,95,10.0,ID,1659857113
saint-joseph,-21.3667,55.6167,74.1,65,0,4.74,RE,1659857114
alice,27.7523,-98.0697,80.49,94,0,4.61,US,1659857114
mwinilunga,-11.7358,24.4293,68.54,36,0,8.93,ZM,1659857115
hereford,52.0568,-2.7148,63.75,72,5,1.59,GB,1659857116
zhigansk,66.7697,123.3711,54.99,97,100,6.85,RU,1659857117
basco,20.4487,121.9702,85.59,73,100,14.47,PH,1659857118
vila velha,-20.3297,-40.2925,64.94,88,20,0.0,BR,1659856909
machaneng,-23.1862,27.4886,69.71,31,99,5.97,BW,1659857119
rio gallegos,-51.6226,-69.2181,32.05,100,100,2.3,AR,1659856895
saint anthony,45.0205,-93.218,71.26,87,75,9.22,US,1659856986
ugoofaaru,5.6667,73.0,81.28,82,99,15.43,MV,1659857121
san juan de los morros,9.9115,-67.3538,68.61,95,1,1.88,VE,1659857122
airai,-8.9266,125.4092,72.91,50,21,4.68,TL,1659857123
maceio,-9.6658,-35.7353,72.84,88,75,1.14,BR,1659857124
cockburn town,21.4612,-71.1419,81.77,78,82,20.67,TC,1659857124
wewak,-3.5534,143.6268,83.1,77,98,7.63,PG,1659857125
concepcion del oro,24.6333,-101.4167,62.58,63,7,8.41,MX,1659857126
biak,-0.9131,122.8766,79.95,77,87,4.61,ID,1659857127
westport,41.1415,-73.3579,81.01,89,0,10.36,US,1659857128
mareeba,-17.0,145.4333,75.43,82,93,7.65,AU,1659857128
polyarnyy,69.1989,33.4478,61.09,66,4,16.11,RU,1659857129
marsa matruh,31.3525,27.2453,83.35,63,0,17.22,EG,1659857130
sur,22.5667,59.5289,91.45,57,39,6.76,OM,1659857131
florianopolis,-27.6146,-48.5012,58.41,99,100,5.75,BR,1659857132
cabedelo,-6.9811,-34.8339,72.27,86,46,9.35,BR,1659856983
genhe,50.7833,121.5167,72.72,29,19,12.8,CN,1659857133
tsiroanomandidy,-18.7667,46.0333,74.64,36,0,2.06,MG,1659857134
kiknur,57.3034,47.2011,77.9,60,19,6.22,RU,1659857135
northport,33.229,-87.5772,76.82,93,0,5.75,US,1659856953
kitami,43.8031,143.8908,78.26,72,100,12.75,JP,1659857136
general pico,-35.6566,-63.7568,45.72,75,94,9.78,AR,1659857137
baoqing,46.3317,132.2111,74.86,83,100,6.15,CN,1659857138
barre,44.197,-72.5021,76.19,47,11,4.27,US,1659857138
san rafael,-34.6177,-68.3301,36.21,98,100,6.24,AR,1659857139
lukovetskiy,64.2956,41.9211,72.25,73,90,11.1,RU,1659857140
mozarlandia,-14.7447,-50.5706,80.22,31,100,3.47,BR,1659857141
anloga,5.7947,0.8973,73.81,86,18,9.78,GH,1659857142
andros town,24.7,-77.7667,82.42,72,0,16.24,BS,1659857142
aswan,24.0934,32.907,98.37,18,19,13.06,EG,1659857143
victoria point,-27.5833,153.3,67.48,53,5,1.99,AU,1659857144
bethanien,-26.502,17.1583,63.09,26,100,9.06,NA,1659857145
pringsewu,-5.3582,104.9744,90.1,49,20,3.22,ID,1659857146
champerico,14.3,-91.9167,74.62,95,100,10.96,GT,1659857147
sorland,67.667,12.6934,49.86,82,100,20.51,NO,1659857147
ola,59.5833,151.2833,68.14,77,0,11.05,RU,1659857148
santa cruz de tenerife,28.4682,-16.2546,83.8,45,0,6.91,ES,1659856965
cheyenne,41.14,-104.8203,71.74,63,20,19.57,US,1659856867
pokhara,28.2333,83.9833,87.49,61,58,4.83,NP,1659857150
ziro,27.6333,93.8333,75.94,50,15,4.0,IN,1659857151
burns lake,54.2331,-125.7533,53.02,85,0,2.26,CA,1659857106
nioaque,-21.1353,-55.83,70.86,65,100,3.29,BR,1659857152
along,28.1667,94.7667,98.28,44,1,2.57,IN,1659857153
poso,-1.3959,120.7524,82.49,78,100,3.27,ID,1659857154
brilon,51.4,8.5833,64.45,52,65,3.29,DE,1659857155
caucaia,-3.7361,-38.6531,76.95,78,40,9.22,BR,1659857155
sindor,62.8629,51.8905,81.37,41,0,8.28,RU,1659857156
qinhuangdao,39.9317,119.5883,84.97,86,100,8.61,CN,1659857050
leh,34.1667,77.5833,71.51,38,59,6.42,IN,1659857158
durban,-29.8579,31.0292,67.93,91,100,4.0,ZA,1659856974
nara,34.6851,135.8049,92.91,68,73,2.71,JP,1659857160
quatre cocos,-20.2078,57.7625,77.11,68,0,8.23,MU,1659857160
faya,18.3851,42.4509,75.72,57,100,6.35,SA,1659857162
kholm,59.2667,32.85,61.75,70,100,6.06,RU,1659857163
troitsko-pechorsk,62.7084,56.1964,82.54,43,6,6.24,RU,1659857164
mount pleasant,32.7941,-79.8626,79.12,95,0,4.61,US,1659857165
matata,-37.8833,176.75,56.84,95,100,3.22,NZ,1659857165
sambava,-14.2667,50.1667,73.78,59,3,10.67,MG,1659857166
orotukan,62.2667,151.7,73.81,49,99,4.99,RU,1659857167
tabou,4.423,-7.3528,72.95,75,39,4.56,CI,1659857169
san lazaro,18.0387,-88.6622,73.26,93,96,2.42,BZ,1659857170
meulaboh,4.1363,96.1285,84.78,66,80,6.55,ID,1659857171
narsaq,60.9167,-46.05,43.02,87,87,1.86,GL,1659857172
solnechnyy,50.7214,136.6319,76.03,78,93,5.35,RU,1659857172
bubaque,11.2833,-15.8333,77.86,86,100,8.99,GW,1659857173
kloulklubed,7.0419,134.2556,83.35,72,94,4.25,PW,1659857174
teluknaga,-6.0989,106.6381,94.17,70,20,10.36,ID,1659857175
vallenar,-28.5708,-70.7581,53.53,67,0,3.31,CL,1659857176
koson,39.0375,65.585,96.62,16,1,11.25,UZ,1659857176
deming,32.2687,-107.7586,82.29,36,0,13.8,US,1659857177
ocos,14.5094,-92.1933,73.58,91,100,2.51,GT,1659857178
parkersburg,39.2667,-81.5615,72.57,98,40,1.01,US,1659857164
hargeysa,9.56,44.065,75.72,42,100,30.53,SO,1659857179
gonzalez,30.5816,-87.2914,82.54,97,0,5.75,US,1659856956
salinas,36.6777,-121.6555,63.41,74,0,3.44,US,1659857157
ust-nera,64.5667,143.2,75.94,45,100,2.73,RU,1659857182
terrace,54.5163,-128.6035,66.11,68,75,4.61,CA,1659857076
port hedland,-20.3167,118.5667,84.25,10,0,8.05,AU,1659857183
brazzaville,-4.2658,15.2832,68.31,88,6,3.44,CG,1659857184
cabrero,-37.0333,-72.4,47.98,94,100,10.47,CL,1659857117
trinidad,-14.8333,-64.9,66.49,95,100,3.09,BO,1659857185
fukue,32.6881,128.8419,88.16,79,75,11.5,JP,1659857186
ushtobe,45.2514,77.9838,91.81,18,0,14.85,KZ,1659857187
isangel,-19.55,169.2667,76.75,85,54,6.93,VU,1659857188
batsfjord,70.6345,29.7185,49.93,100,100,21.85,NO,1659857188
tupelo,34.2576,-88.7034,80.89,86,0,4.61,US,1659857189
kendari,-3.945,122.4989,81.88,83,96,4.07,ID,1659857190
bahia honda,22.9036,-83.1592,76.89,90,100,8.63,CU,1659857191
ushibuka,32.1906,130.0228,85.44,74,100,8.14,JP,1659857192
rosarito,32.3333,-117.0333,70.25,73,8,11.21,MX,1659857067
tikhvin,59.6451,33.5294,61.09,67,100,6.89,RU,1659857193
ndele,8.4109,20.6473,69.76,99,100,3.15,CF,1659857194
middle island,40.8843,-72.9373,78.91,90,75,9.22,US,1659857195
kathu,7.9178,98.3332,85.82,72,100,8.57,TH,1659857196
jiazi,22.8779,116.067,87.08,70,77,12.8,CN,1659857196
palu,-0.8917,119.8707,79.68,92,100,3.6,ID,1659857197
kidal,18.4411,1.4078,89.1,36,90,7.36,ML,1659857198
flinders,-34.5833,150.8552,58.17,68,9,4.0,AU,1659857199
wagar,16.1525,36.2032,82.99,59,100,20.65,SD,1659857200
korcula,42.9622,17.1369,79.97,66,0,8.95,HR,1659857201
sept-iles,50.2001,-66.3821,59.05,93,100,6.91,CA,1659857162
juventino rosas,20.65,-101.0,62.67,91,100,5.7,MX,1659857202
makakilo city,21.3469,-158.0858,77.68,76,75,6.91,US,1659857203
avera,33.194,-82.5271,73.54,87,73,2.59,US,1659857205
portel,-1.9356,-50.8211,73.04,91,5,4.61,BR,1659857205
salo,45.6086,10.531,77.32,77,100,2.89,IT,1659857206
tashtyp,52.7939,89.8983,75.18,34,0,4.47,RU,1659857207
fallon,39.4735,-118.7774,71.47,46,0,3.44,US,1659857208
xiaoweizhai,26.1903,107.5125,82.04,76,66,6.78,CN,1659857209
jucurutu,-6.0339,-37.0203,72.68,79,31,3.98,BR,1659857209
nagornyy,52.7959,83.5498,81.63,29,0,5.84,RU,1659857210
anchorage,61.2181,-149.9003,57.25,82,100,6.91,US,1659857149
adrar,20.5022,-10.0711,90.72,30,4,6.49,MR,1659857213
san jeronimo,-11.9472,-75.2829,49.03,82,100,1.43,PE,1659857214
rudnichnyy,59.617,52.4703,79.47,50,8,3.6,RU,1659857215
lakefield,43.6775,-95.1717,67.87,90,70,1.01,US,1659856938
