City,Lat,Lng,Max Temp,Humidity,Cloudiness,Wind Speed,Country,Date
tiksi,71.6872,128.8694,12.17,59,100,4.94,RU,1660179645
mar del plata,-38.0023,-57.5575,10.05,86,0,10.36,AR,1660179525
punta arenas,-53.15,-70.9167,5.06,80,100,4.94,CL,1660179647
qaanaaq,77.484,-69.3632,1.71,65,30,4.72,GL,1660179647
hithadhoo,-0.6,73.0833,27.75,73,1,9.86,MV,1660179648
tautira,-17.7333,-149.15,25.08,72,100,15.14,PF,1660179649
alofi,-19.0595,-169.9187,27.94,65,40,9.22,NU,1660179573
bredasdorp,-34.5322,20.0403,12.1,92,100,2.39,ZA,1660179438
new norfolk,-42.7826,147.0587,12.18,73,97,2.84,AU,1660179650
upernavik,72.7868,-56.1549,4.9,87,100,7.29,GL,1660179652
honjo,36.2333,139.1833,33.15,60,96,1.79,JP,1660179653
puerto ayora,-0.7393,-90.3518,21.42,91,89,8.01,EC,1660179518
barrow,71.2906,-156.7887,8.01,87,100,13.8,US,1660179654
namibe,-15.1961,12.1522,16.04,90,4,5.14,AO,1660179655
busselton,-33.65,115.3333,13.12,75,89,3.62,AU,1660179656
sao filipe,14.8961,-24.4956,25.5,88,38,7.96,CV,1660179657
hermanus,-34.4187,19.2345,11.0,90,88,8.68,ZA,1660179658
husavik,66.0449,-17.3389,7.42,84,99,5.73,IS,1660179659
mahebourg,-20.4081,57.7,19.58,64,93,18.97,MU,1660179660
pandharpur,17.6667,75.3333,23.42,85,100,19.24,IN,1660179661
berlevag,70.8578,29.0864,13.89,87,75,4.61,NO,1660179661
mataura,-46.1927,168.8643,6.93,60,18,5.64,NZ,1660179517
tuktoyaktuk,69.4541,-133.0374,8.13,82,100,17.27,CA,1660179663
thessalon,46.2501,-83.5666,18.16,67,0,14.38,CA,1660179664
hue,16.4667,107.6,28.06,74,40,2.3,VN,1660179624
avarua,-21.2078,-159.775,25.03,69,40,16.11,CK,1660179609
puerto del rosario,28.5004,-13.8627,22.86,73,100,13.8,ES,1660179666
hobyo,5.3505,48.5268,24.54,80,92,18.9,SO,1660179667
bethel,41.3712,-73.414,24.94,76,3,1.9,US,1660179646
rawson,-43.3002,-65.1023,10.54,51,95,7.92,AR,1660179461
yellowknife,62.456,-114.3525,18.67,54,100,20.56,CA,1660179669
bluff,-46.6,168.3333,7.11,57,8,10.22,NZ,1660179670
saint george,37.1041,-113.5841,32.46,40,29,4.0,US,1660179401
vaini,-21.2,-175.2,27.09,94,75,19.57,TO,1660179403
lebu,-37.6167,-73.65,8.31,84,1,1.9,CL,1660179673
rikitea,-23.1203,-134.9692,22.91,73,100,22.44,PF,1660179524
kodiak,57.79,-152.4072,13.73,88,100,8.05,US,1660179676
taoudenni,22.6783,-3.9836,36.86,14,8,5.64,ML,1660179676
san andres,12.5847,-81.7006,29.01,84,75,11.5,CO,1660179572
atuona,-9.8,-139.0333,25.27,71,0,21.45,PF,1660179573
kapaa,22.0752,-159.319,29.15,69,100,7.0,US,1660179678
hilo,19.7297,-155.09,34.04,74,30,5.01,US,1660179420
platteville,42.7342,-90.4785,25.05,78,0,3.44,US,1660179680
ushuaia,-54.8,-68.3,1.81,93,100,2.3,AR,1660179390
lorengau,-2.0226,147.2712,29.4,67,100,4.29,PG,1660179682
palauig,15.435,119.9045,28.62,74,90,7.58,PH,1660179683
codrington,-38.2667,141.9667,11.17,80,100,16.93,AU,1660179684
kuytun,54.3419,101.5036,14.04,94,100,5.06,RU,1660179686
cape town,-33.9258,18.4232,13.48,92,97,3.0,ZA,1660179686
ilulissat,69.2167,-51.1,6.01,87,100,5.75,GL,1660179688
cabo san lucas,22.8909,-109.9124,30.34,72,100,11.5,MX,1660179603
san patricio,28.017,-97.5169,33.43,54,6,14.03,US,1660179648
butaritari,3.0707,172.7902,27.77,72,17,15.9,KI,1660179441
vila velha,-20.3297,-40.2925,23.86,77,100,1.99,BR,1660179690
kayerkan,69.3497,87.7602,8.07,100,72,7.63,RU,1660179691
pevek,69.7008,170.3133,5.91,88,26,4.29,RU,1660179583
san cristobal,7.7669,-72.225,23.1,98,100,2.86,VE,1660179561
east london,-33.0153,27.9116,16.14,79,93,2.42,ZA,1660179446
orzinuovi,45.404,9.9216,26.14,64,31,7.54,IT,1660179694
carnarvon,-24.8667,113.6333,15.05,46,0,19.1,AU,1660179418
port alfred,-33.5906,26.891,15.05,85,49,6.42,ZA,1660179695
belyy yar,53.6039,91.3903,17.94,69,0,2.24,RU,1660179696
kyshtovka,56.555,76.6271,16.55,97,95,8.84,RU,1660179697
ulvila,61.4284,21.871,16.04,94,0,6.91,FI,1660179698
adrar,20.5022,-10.0711,33.8,27,50,11.01,MR,1660179698
west wendover,40.7391,-114.0733,25.56,50,100,20.71,US,1660179699
jamestown,42.097,-79.2353,18.8,59,0,5.75,US,1660179700
talnakh,69.4865,88.3972,8.45,63,80,9.78,RU,1660179701
haines junction,60.7522,-137.5108,8.86,89,100,1.48,CA,1660179702
albany,42.6001,-73.9662,21.07,82,8,3.02,US,1660179639
ekibastuz,51.6667,75.3667,16.65,88,100,2.95,KZ,1660179704
te anau,-45.4167,167.7167,5.35,70,51,0.76,NZ,1660179705
khatanga,71.9667,102.5,7.36,71,99,12.97,RU,1660179706
port hedland,-20.3167,118.5667,19.03,30,8,17.27,AU,1660179707
oussouye,12.485,-16.5469,26.56,86,100,8.01,SN,1660179707
kathmandu,27.7167,85.3167,22.12,94,75,4.61,NP,1660179451
chuy,-33.6971,-53.4616,9.15,86,100,4.16,UY,1660179515
veraval,20.9,70.3667,26.89,90,100,25.32,IN,1660179709
wakkanai,45.4094,141.6739,22.29,84,100,26.13,JP,1660179710
yuli,9.6989,10.2744,23.65,93,100,3.69,NG,1660179711
hobart,-42.8794,147.3294,12.37,74,0,4.61,AU,1660179626
bambous virieux,-20.3428,57.7575,19.56,65,94,19.04,MU,1660179712
esso,55.9333,158.7,15.67,76,100,3.98,RU,1660179713
itarema,-2.9248,-39.9167,24.96,82,95,14.27,BR,1660179714
tomatlan,19.9333,-105.25,25.73,92,100,3.83,MX,1660179715
goderich,43.7501,-81.7165,22.17,71,0,11.99,CA,1660179629
puerto varas,-41.3195,-72.9854,8.17,81,100,6.31,CL,1660179716
san antonio,29.4241,-98.4936,36.96,43,75,23.02,US,1660179480
pangkalanbuun,-2.6833,111.6167,26.76,84,98,4.94,ID,1660179718
pimentel,-6.8367,-79.9342,16.73,83,71,11.41,PE,1660179720
esperance,-33.8667,121.9,14.07,72,80,17.22,AU,1660179720
aksu,41.1231,80.2644,25.09,39,100,3.74,CN,1660179721
socuellamos,39.2858,-2.7921,24.65,43,0,11.45,ES,1660179722
nakskov,54.8373,11.1284,13.95,74,3,6.11,DK,1660179723
bowen,-20.0167,148.2333,21.8,62,94,15.43,AU,1660179724
san carlos de bariloche,-41.1456,-71.3082,0.14,77,26,7.0,AR,1660179610
northam,51.0333,-4.2167,18.55,59,0,4.97,GB,1660179726
cockburn town,21.4612,-71.1419,27.57,77,0,18.61,TC,1660179727
menomonie,44.8755,-91.9193,25.02,47,0,6.91,US,1660179728
alberton,46.8168,-64.0654,17.18,90,82,6.87,CA,1660179729
porto torres,40.835,8.3972,22.1,61,3,3.89,IT,1660179730
margate,51.3813,1.3862,19.61,93,0,5.01,GB,1660179696
port blair,11.6667,92.75,27.71,80,100,13.89,IN,1660179731
naze,28.3667,129.4833,28.12,70,100,2.37,JP,1660179732
kharan,28.5833,65.4167,31.15,47,70,3.74,PK,1660179667
verkhnevilyuysk,63.4453,120.3167,19.45,65,67,5.35,RU,1660179734
orlik,52.5178,99.825,14.67,59,1,2.28,RU,1660179734
ormara,25.2088,64.6357,29.13,74,100,8.88,PK,1660179668
gawler,-34.6,138.7333,15.14,62,0,18.32,AU,1660179736
nanortalik,60.1432,-45.2371,7.1,98,100,10.58,GL,1660179480
sembe,1.6481,14.5806,23.12,83,99,2.57,CG,1660179737
kimbe,-5.5502,150.1429,28.33,81,99,4.25,PG,1660179738
cayenne,4.9333,-52.3333,27.83,1,0,2.3,GF,1660179605
stromness,58.965,-3.296,14.98,87,100,7.0,GB,1660179739
katsuura,35.1333,140.3,28.01,80,16,16.46,JP,1660179740
yulara,-25.2406,130.9889,13.07,37,100,3.71,AU,1660179741
bulgan,48.8125,103.5347,16.12,74,98,1.59,MN,1660179742
zhangjiakou,40.81,114.8794,23.87,60,0,2.77,CN,1660179622
sveti nikole,41.8696,21.9527,17.47,80,49,4.0,MK,1660179743
buraydah,26.326,43.975,33.79,20,11,9.13,SA,1660179744
campina verde,-19.5356,-49.4864,12.61,56,93,3.24,BR,1660179745
coihaique,-45.5752,-72.0662,3.59,99,100,4.83,CL,1660179666
olafsvik,64.8945,-23.7142,9.27,78,100,5.44,IS,1660179707
gobabis,-22.45,18.9667,14.19,18,0,7.74,NA,1660179747
moses lake,47.1301,-119.2781,37.16,11,0,9.19,US,1660179635
anadyr,64.75,177.4833,20.28,59,0,8.95,RU,1660179748
gillette,44.2911,-105.5022,35.62,17,19,10.0,US,1660179514
nikolskoye,59.7035,30.7861,15.45,81,94,4.68,RU,1660179750
kazachinskoye,57.6953,93.2761,16.54,83,0,2.51,RU,1660179751
linqing,36.8456,115.7117,23.59,91,76,3.02,CN,1660179751
victoria,22.2855,114.1577,29.62,88,100,11.01,HK,1660179716
kindu,-2.95,25.95,22.71,44,41,2.68,CD,1660179753
iturama,-19.7281,-50.1956,13.78,60,0,8.63,BR,1660179704
tucuman,-26.8241,-65.2226,12.58,51,10,4.27,AR,1660179618
port elizabeth,-33.918,25.5701,11.84,96,79,6.06,ZA,1660179755
fort-shevchenko,44.5086,50.263,28.38,39,0,13.6,KZ,1660179756
betioky,-23.7167,44.3833,17.47,60,0,10.47,MG,1660179757
airai,-8.9266,125.4092,21.57,52,31,3.2,TL,1660179524
sorland,67.667,12.6934,11.92,84,3,33.58,NO,1660179758
faanui,-16.4833,-151.75,25.72,69,0,6.76,PF,1660179662
taltal,-25.4,-70.4833,15.05,72,23,4.94,CL,1660179620
tasiilaq,65.6145,-37.6368,4.09,76,99,4.76,GL,1660179761
cidreira,-30.1811,-50.2056,14.58,79,100,6.91,BR,1660179762
carmen,18.6333,-91.8333,25.08,92,84,17.69,MX,1660179494
muros,42.7762,-9.0603,17.83,94,92,4.12,ES,1660179763
la ronge,55.1001,-105.2842,16.3,54,0,5.28,CA,1660179607
caxito,-8.5785,13.6643,18.59,96,34,0.58,AO,1660179764
argelia,2.2556,-77.2488,17.64,90,74,0.54,CO,1660179618
hay river,60.8156,-115.7999,22.04,43,60,14.85,CA,1660179766
bengkulu,-3.8004,102.2655,25.33,80,68,2.62,ID,1660179767
bilibino,68.0546,166.4372,22.1,57,20,4.79,RU,1660179767
killybegs,54.6333,-8.45,14.61,79,0,1.63,IE,1660179768
cerritos,33.8583,-118.0648,37.02,43,0,13.8,US,1660179716
luderitz,-26.6481,15.1594,13.42,61,3,8.59,NA,1660179770
vrangel,42.7297,133.0839,22.25,88,100,3.76,RU,1660179771
saldanha,-33.0117,17.9442,13.28,92,100,3.94,ZA,1660179771
san luis,-33.295,-66.3356,10.1,45,0,8.1,AR,1660179772
asau,46.4333,26.4,13.51,90,7,5.21,RO,1660179773
batagay,67.6333,134.6333,21.43,44,23,3.29,RU,1660179774
fujinomiya,35.2167,138.6167,34.21,64,31,6.15,JP,1660179624
huarmey,-10.0681,-78.1522,17.2,82,27,7.16,PE,1660179775
colac,-38.3333,143.5833,10.09,94,100,11.18,AU,1660179776
road town,18.4167,-64.6167,28.02,78,40,8.05,VG,1660179628
nyimba,-14.5566,30.8149,17.58,46,0,2.33,ZM,1660179777
saint-leu,-21.15,55.2833,18.51,67,4,5.84,RE,1660179778
tartus,34.889,35.8866,26.83,74,28,15.5,SY,1660179779
darnah,32.767,22.6367,26.6,73,0,18.05,LY,1660179780
rio grande,-32.035,-52.0986,8.3,85,100,7.7,BR,1660179781
vestmannaeyjar,63.4427,-20.2734,10.61,80,95,9.6,IS,1660179781
sinnamary,5.3833,-52.95,25.9,87,73,8.72,GF,1660179782
calatayud,41.3535,-1.6432,23.41,51,57,2.08,ES,1660179783
kolondieba,11.0882,-6.8926,22.45,95,77,4.47,ML,1660179784
havoysund,70.9963,24.6622,12.13,91,100,9.4,NO,1660179785
beloha,-25.1667,45.05,17.46,60,1,8.61,MG,1660179786
caravelas,-17.7125,-39.2481,23.15,75,17,15.03,BR,1660179786
port hawkesbury,45.6169,-61.3485,17.63,97,100,7.0,CA,1660179788
chokurdakh,70.6333,147.9167,21.17,47,100,10.65,RU,1660179743
porto walter,-8.2686,-72.7439,21.52,80,76,2.89,BR,1660179789
lompoc,34.6391,-120.4579,29.76,59,1,11.25,US,1660179566
seoul,37.5683,126.9778,24.69,84,100,2.57,KR,1660179664
okhotsk,59.3833,143.3,15.11,86,100,8.1,RU,1660179792
lagoa,39.05,-27.9833,21.49,73,10,6.11,PT,1660179793
belaya gora,68.5333,146.4167,19.88,56,100,4.81,RU,1660179794
kamogata,34.5333,133.5833,32.99,62,63,6.24,JP,1660179794
oktyabrskoye,43.0645,44.7417,14.08,100,0,6.71,RU,1660179795
zabol,32.25,67.25,24.7,52,6,5.03,AF,1660179796
tianpeng,30.9866,103.9393,26.89,76,100,2.62,CN,1660179797
severo-kurilsk,50.6789,156.125,15.37,82,13,9.55,RU,1660179798
nizhniy odes,63.6445,54.856,10.79,94,100,5.28,RU,1660179799
valparaiso,-33.0393,-71.6273,11.38,100,0,5.75,CL,1660179800
marzuq,14.4,46.4667,25.0,67,100,8.1,YE,1660179801
cherskiy,68.75,161.3,19.79,54,0,2.59,RU,1660179801
maun,-19.9833,23.4167,14.16,25,0,4.54,BW,1660179802
dunmore east,52.1514,-6.9861,17.9,61,6,4.99,IE,1660179803
micheweni,-4.9667,39.8333,23.36,82,41,11.61,TZ,1660179804
ancud,-41.8697,-73.8203,11.24,94,100,15.43,CL,1660179805
kenai,60.5544,-151.2583,20.05,43,0,16.11,US,1660179805
yinchuan,38.4681,106.2731,25.01,66,0,7.54,CN,1660179806
pemangkat,1.1667,108.9667,27.24,80,40,4.23,ID,1660179807
brownwood,31.7093,-98.9912,28.62,73,100,6.04,US,1660179808
sulangan,11.1373,123.7228,27.77,77,20,5.06,PH,1660179809
rock sound,24.9,-76.2,28.12,74,0,16.75,BS,1660179810
kuruman,-27.4524,23.4325,12.18,29,8,3.33,ZA,1660179643
oytal,42.9057,73.2697,19.64,50,0,2.66,KZ,1660179812
fuerte olimpo,-21.0415,-57.8738,12.49,70,0,4.74,PY,1660179813
lavrentiya,65.5833,-171.0,9.6,81,59,6.17,RU,1660179814
kidal,18.4411,1.4078,31.81,38,69,8.25,ML,1660179815
hofn,64.2539,-15.2082,10.88,77,99,4.27,IS,1660179815
bathsheba,13.2167,-59.5167,27.19,82,5,9.26,BB,1660179816
bonthe,7.5264,-12.505,24.33,91,99,10.33,SL,1660179817
sorong,-0.8833,131.25,27.48,75,18,6.64,ID,1660179818
kavieng,-2.5744,150.7967,28.39,71,94,5.75,PG,1660179664
pirot,43.1531,22.5861,16.08,90,41,0.63,RS,1660179819
ndele,8.4109,20.6473,21.17,99,100,4.61,CF,1660179613
gusau,12.1628,6.6614,24.47,84,99,7.54,NG,1660179821
aykhal,66.0,111.5,13.55,97,100,6.08,RU,1660179821
hagavik,60.1833,5.4333,16.77,87,100,12.66,NO,1660179822
mehamn,71.0357,27.8492,12.97,94,100,5.75,NO,1660179823
ribeira grande,38.5167,-28.7,22.6,72,90,7.27,PT,1660179824
longyearbyen,78.2186,15.6401,8.91,71,75,11.5,SJ,1660179825
baherden,38.4362,57.4316,25.64,25,0,4.0,TM,1660179826
talcahuano,-36.7167,-73.1167,7.82,87,0,3.44,CL,1660179827
tura,25.5198,90.2201,24.73,84,1,5.73,IN,1660179828
kieta,-6.2167,155.6333,28.93,71,100,5.37,PG,1660179828
lander,42.833,-108.7307,36.22,16,0,9.22,US,1660179754
akonolinga,3.7667,12.25,20.06,98,100,3.83,CM,1660179830
baiao,-2.7906,-49.6717,25.54,56,57,2.39,BR,1660179831
liberal,37.0431,-100.921,33.08,27,0,8.05,US,1660179831
hirara,24.8,125.2833,29.29,69,4,5.32,JP,1660179832
iqaluit,63.7506,-68.5145,5.69,82,7,10.25,CA,1660179614
pokrovsk,48.282,37.1758,24.01,32,100,8.61,UA,1660179834
provideniya,64.3833,-173.3,12.06,87,75,8.95,RU,1660179835
saskylakh,71.9167,114.0833,9.54,79,100,13.4,RU,1660179578
taksimo,56.3444,114.8794,16.94,67,89,1.36,RU,1660179771
fortuna,40.5982,-124.1573,22.83,74,0,14.97,US,1660179837
shache,38.4167,77.2406,25.93,49,98,5.32,CN,1660179741
fairlie,55.756,-4.8556,13.55,79,0,1.66,GB,1660179839
sylacauga,33.1732,-86.2516,26.91,78,75,6.91,US,1660179711
leningradskiy,69.3833,178.4167,8.54,80,52,5.97,RU,1660179841
yining,29.0361,114.5636,32.57,53,40,3.42,CN,1660179842
napier,-39.4833,176.9167,9.04,85,95,8.99,NZ,1660179843
buenos aires,-34.6132,-58.3772,11.66,71,2,10.74,AR,1660179704
montrose,38.4166,-108.2673,28.67,46,96,15.7,US,1660179844
tilichiki,60.4667,166.1,10.63,95,100,8.1,RU,1660179845
kyrylivka,46.3759,35.3675,26.0,52,81,11.18,UA,1660179846
yar-sale,66.8333,70.8333,10.78,69,31,6.53,RU,1660179847
pryluky,50.5932,32.3876,15.93,95,100,12.15,UA,1660179848
brigantine,39.4101,-74.3646,25.11,89,0,5.75,US,1660179726
champerico,14.3,-91.9167,27.5,74,100,4.25,GT,1660179849
kysyl-syr,63.8986,122.7617,20.59,64,76,5.84,RU,1660179850
kwinana,-32.25,115.7667,13.23,87,0,5.44,AU,1660179851
bageshwar,29.85,79.7667,20.79,93,100,4.09,IN,1660179852
tuatapere,-46.1333,167.6833,6.92,68,12,5.84,NZ,1660179853
bac lieu,9.285,105.7244,26.58,82,100,10.96,VN,1660179854
juquitiba,-23.9317,-47.0683,10.09,97,100,7.16,BR,1660179854
birao,10.2849,22.7882,21.82,97,100,4.45,CF,1660179856
karonga,-9.9333,33.9333,18.91,72,0,4.47,MW,1660179857
kargil,34.5667,76.1,14.61,70,100,7.34,IN,1660179857
georgetown,5.4112,100.3354,28.83,84,20,0.0,MY,1660179607
ampanihy,-24.7,44.75,16.58,65,3,5.68,MG,1660179859
catemaco,18.4167,-95.1167,22.99,91,100,4.0,MX,1660179860
balkanabat,39.5108,54.3671,29.01,20,0,10.69,TM,1660179861
merauke,-8.4667,140.3333,25.69,80,98,11.16,ID,1660179862
skelleftea,64.7507,20.9528,18.33,89,100,10.36,SE,1660179864
savonlinna,61.8699,28.88,16.03,77,0,8.05,FI,1660179865
jackson,42.4165,-122.8345,30.51,31,0,11.5,US,1660179716
aliwal north,-30.6937,26.7114,9.78,40,34,3.18,ZA,1660179866
nemuro,43.3236,145.575,20.51,93,52,10.83,JP,1660179867
saint-philippe,-21.3585,55.7679,17.77,79,96,16.37,RE,1660179868
wattegama,6.7989,81.4808,23.52,70,99,2.8,LK,1660179868
pisco,-13.7,-76.2167,16.03,82,100,8.05,PE,1660179869
wahiawa,21.5028,-158.0236,29.18,57,20,13.8,US,1660179870
thinadhoo,0.5333,72.9333,27.61,74,4,6.73,MV,1660179871
roma,43.2128,-75.4557,20.4,83,0,3.44,US,1660179726
lata,40.1629,-8.3327,16.22,96,1,1.36,PT,1660179872
arraial do cabo,-22.9661,-42.0278,21.07,78,100,9.04,BR,1660179873
arcachon,44.5875,-1.0519,26.18,38,0,3.44,FR,1660179874
belgrade,44.804,20.4651,17.96,73,0,5.75,RS,1660179875
kahului,20.8947,-156.47,32.2,58,20,31.07,US,1660179818
port macquarie,-31.4333,152.9167,17.72,56,100,5.91,AU,1660179876
den helder,52.9599,4.7593,19.42,93,1,7.0,NL,1660179877
bontang,0.1333,117.5,26.09,83,63,4.65,ID,1660179878
batagay-alyta,67.8006,130.4114,19.98,47,82,3.36,RU,1660179878
puerto escondido,15.85,-97.0667,28.46,61,40,5.75,MX,1660179879
komsomolskiy,40.4272,71.7189,22.4,53,6,2.3,UZ,1660179880
katherine,-14.4667,132.2667,28.18,54,5,6.91,AU,1660179881
manzhouli,49.6,117.4333,19.04,51,59,10.4,CN,1660179882
zhigansk,66.7697,123.3711,16.99,71,84,16.8,RU,1660179643
mao,39.8885,4.2658,25.31,78,0,4.61,ES,1660179883
werda,-25.2667,23.2833,15.38,23,0,9.13,BW,1660179884
benguela,-12.5763,13.4055,18.74,91,9,2.17,AO,1660179885
lawton,34.6087,-98.3903,33.13,44,75,5.75,US,1660179885
pangnirtung,66.1451,-65.7125,6.4,86,52,2.28,CA,1660179854
leh,34.1667,77.5833,18.58,57,54,5.3,IN,1660179887
castro,-24.7911,-50.0119,7.98,96,100,6.22,BR,1660179641
saint-augustin,51.226,-58.6502,13.95,85,0,8.14,CA,1660179888
axim,4.8699,-2.2405,23.0,93,18,6.6,GH,1660179889
dikson,73.5069,80.5464,5.39,88,100,10.2,RU,1660179890
clyde river,70.4692,-68.5914,4.23,81,37,3.62,CA,1660179891
alice springs,-23.7,133.8833,13.75,72,100,0.0,AU,1660179613
uwajima,33.2238,132.56,30.36,71,90,7.47,JP,1660179892
gannan,47.9147,123.5031,17.65,70,100,7.56,CN,1660179893
faya,18.3851,42.4509,18.29,84,70,6.13,SA,1660179894
richards bay,-28.783,32.0377,17.2,91,5,3.2,ZA,1660179894
lehola,59.2925,24.3279,15.97,95,0,9.22,EE,1660179895
mount isa,-20.7333,139.5,22.87,25,8,9.22,AU,1660179659
blagoyevo,63.3667,47.9167,12.13,71,85,4.0,RU,1660179897
dingle,10.9995,122.6711,28.13,79,58,2.59,PH,1660179898
kulhudhuffushi,6.6221,73.07,27.56,83,62,14.38,MV,1660179899
mashivka,49.4431,34.8669,19.67,78,100,11.86,UA,1660179900
homer,59.6425,-151.5483,17.65,71,20,5.75,US,1660179902
shingu,33.7333,135.9833,30.22,64,99,4.05,JP,1660179903
lieksa,63.3167,30.0167,16.33,80,100,11.3,FI,1660179904
portlethen,57.0547,-2.1307,13.21,87,0,1.14,GB,1660179905
ilesha,7.1371,5.2583,21.51,97,100,4.47,NG,1660179905
eyl,7.9803,49.8164,24.96,73,94,22.7,SO,1660179906
meadow lake,34.8014,-106.5436,28.69,39,66,10.13,US,1660179744
carlisle,40.2015,-77.1889,26.89,69,91,1.01,US,1660179712
kljajicevo,45.7704,19.2777,12.96,54,5,8.48,RS,1660179908
krasnoselkup,65.7,82.4667,11.87,65,100,6.44,RU,1660179909
pabianice,51.6645,19.3547,16.28,93,99,0.0,PL,1660179910
rocha,-34.4833,-54.3333,6.67,93,100,4.07,UY,1660179911
jiexiu,37.0244,111.9125,23.79,88,97,0.83,CN,1660179911
orocue,4.7912,-71.3354,24.39,85,60,1.9,CO,1660179912
waipawa,-41.4122,175.5153,6.49,75,100,8.46,NZ,1660179913
maneadero,31.7167,-116.5667,25.06,81,20,3.0,MX,1660179914
egvekinot,66.3167,-179.1667,15.55,65,9,5.23,RU,1660179915
bom jesus,-9.0744,-44.3586,21.28,28,0,1.63,BR,1660179915
elliot,-31.3333,27.85,9.48,47,40,6.44,ZA,1660179916
kavaratti,10.5669,72.642,27.31,82,100,21.79,IN,1660179917
praia,14.9215,-23.5087,26.3,78,20,10.36,CV,1660179918
ambilobe,-13.2,49.05,17.5,74,3,4.59,MG,1660179919
poum,-20.2333,164.0167,22.09,54,1,19.86,NC,1660179920
kishi,9.0833,3.85,22.52,88,100,7.63,NG,1660179921
cravo norte,6.3017,-70.2041,22.87,95,63,4.52,CO,1660179922
jiaozuo,35.2397,113.2331,26.4,79,100,2.66,CN,1660179923
mineiros,-17.5694,-52.5511,12.68,48,100,4.61,BR,1660179781
guatire,10.4762,-66.5427,22.14,96,100,1.43,VE,1660179925
ahipara,-35.1667,173.1667,14.22,67,77,8.99,NZ,1660179925
aksarka,66.5606,67.7975,10.26,71,99,5.57,RU,1660179710
beringovskiy,63.05,179.3167,16.06,71,8,5.41,RU,1660179927
hasaki,35.7333,140.8333,32.94,81,39,18.88,JP,1660179928
lasa,46.6166,10.7002,15.76,93,26,2.71,IT,1660179929
baleshwar,21.4942,86.9317,24.61,93,100,9.15,IN,1660179930
los llanos de aridane,28.6585,-17.9182,20.07,91,0,4.61,ES,1660179931
kaitangata,-46.2817,169.8464,6.5,71,52,4.81,NZ,1660179932
whitehorse,60.7161,-135.0538,11.68,71,100,5.99,CA,1660179761
coquimbo,-29.9533,-71.3436,10.85,100,0,2.3,CL,1660179789
prieska,-29.6641,22.7474,12.3,25,65,0.25,ZA,1660179934
dongying,37.4564,118.4856,23.38,92,100,4.38,CN,1660179935
toktogul,41.8708,72.9402,19.45,63,12,1.25,KG,1660179936
liverpool,53.4106,-2.9779,18.12,79,5,3.44,GB,1660179936
srednekolymsk,67.45,153.6833,24.58,45,100,2.51,RU,1660179937
riyadh,24.6877,46.7219,36.08,17,100,11.16,SA,1660179908
frontera,26.9333,-101.45,35.74,30,44,7.0,MX,1660179939
san policarpo,12.1791,125.5072,27.55,80,13,3.76,PH,1660179939
santa maria,-29.6842,-53.8069,8.81,91,54,3.98,BR,1660179940
swellendam,-34.0226,20.4417,9.92,96,100,1.54,ZA,1660179941
aquiraz,-3.9014,-38.3911,25.05,82,12,8.72,BR,1660179942
novikovo,51.1537,37.8879,20.01,73,100,10.98,RU,1660179943
port-cartier,50.0334,-66.8654,15.97,89,5,3.15,CA,1660179943
clevelandia,-26.3958,-52.4708,6.71,93,66,6.93,BR,1660179680
pacific grove,36.6177,-121.9166,26.92,76,0,9.22,US,1660179945
saint-georges,12.0564,-61.7485,26.49,85,72,9.91,GD,1660179946
novyy urengoy,66.0833,76.6333,11.83,68,100,7.52,RU,1660179947
ouesso,1.6136,16.0517,23.55,81,98,3.15,CG,1660179768
morant bay,17.8815,-76.4093,27.62,83,2,9.53,JM,1660179949
binzhou,37.3667,118.0167,23.02,95,99,3.83,CN,1660179950
honiara,-9.4333,159.95,29.94,66,42,7.05,SB,1660179951
norman wells,65.282,-126.8329,15.38,41,79,12.88,CA,1660179952
zhuhai,22.2769,113.5678,29.36,94,40,14.97,CN,1660179953
geraldton,-28.7667,114.6,9.23,93,0,3.44,AU,1660179756
narsaq,60.9167,-46.05,8.12,90,100,7.16,GL,1660179954
tiarei,-17.5333,-149.3333,27.01,70,75,11.23,PF,1660179813
turukhansk,65.8167,87.9833,10.73,67,100,9.1,RU,1660179956
sitka,57.0531,-135.33,15.94,82,100,3.44,US,1660179957
lashio,22.9333,97.75,21.66,92,50,1.59,MM,1660179958
grivenskaya,45.6473,38.176,24.66,39,75,8.84,RU,1660179959
maningrida,-12.0667,134.2667,27.56,58,2,9.75,AU,1660179960
elbistan,38.2059,37.1983,21.62,45,0,1.92,TR,1660179961
ossora,59.2353,163.0719,12.94,92,100,8.61,RU,1660179962
lazarev,52.225,141.5131,15.44,93,100,13.35,RU,1660179963
progreso,21.2833,-89.6667,23.39,89,97,1.07,MX,1660179964
plouzane,48.3833,-4.6167,20.03,78,0,8.05,FR,1660179952
winona,43.9666,-91.7668,25.11,83,75,3.44,US,1660179966
maniitsoq,65.4167,-52.9,6.75,80,87,7.0,GL,1660179967
misratah,32.3754,15.0925,26.9,68,0,0.6,LY,1660179967
kudahuvadhoo,2.6708,72.8944,27.27,76,10,2.19,MV,1660179968
joao pinheiro,-17.7425,-46.1725,17.83,37,56,10.87,BR,1660179757
prescott,34.54,-112.4685,20.37,92,100,1.99,US,1660179922
guerrero negro,27.9769,-114.0611,24.31,68,100,14.0,MX,1660179970
hami,42.8,93.45,32.17,18,96,13.69,CN,1660179972
ambon,-3.6954,128.1814,27.08,83,40,3.44,ID,1660179677
beausejour,50.0622,-96.5167,20.45,62,74,5.88,CA,1660179973
farah,32.5,62.5,23.52,22,0,6.89,AF,1660179974
fuyu,45.1833,124.8167,22.66,56,4,5.68,CN,1660179975
evansville,37.9748,-87.5558,25.01,83,0,1.01,US,1660179841
kuragino,53.8975,92.6725,17.73,67,0,1.63,RU,1660179976
minsk,53.9,27.5667,13.86,83,50,6.55,BY,1660179700
ulladulla,-35.35,150.4667,15.19,58,100,7.02,AU,1660179978
jangipur,24.4667,88.0667,26.44,86,100,17.4,IN,1660179775
san vicente,-26.6167,-54.1333,9.11,88,91,4.07,AR,1660179979
wang saphung,17.301,101.7685,25.02,89,99,4.36,TH,1660179980
vernon,50.2581,-119.2691,34.57,36,96,5.01,CA,1660179981
briceni,48.3572,27.7036,13.61,80,10,7.83,MD,1660179982
petropavlovsk-kamchatskiy,53.0452,158.6483,17.33,68,75,4.47,RU,1660179982
qaqortoq,60.7167,-46.0333,7.28,91,100,8.01,GL,1660179983
bubaque,11.2833,-15.8333,26.96,86,97,12.35,GW,1660179984
matara,5.9485,80.5353,24.36,94,80,6.93,LK,1660179985
makakilo city,21.3469,-158.0858,29.86,59,40,12.66,US,1660179718
nishihara,26.1842,127.7558,32.03,72,40,6.91,JP,1660179986
abu kamal,34.4506,40.9171,28.39,42,0,12.12,SY,1660179987
tutzing,47.9094,11.2803,14.88,86,3,1.14,DE,1660179988
paracuru,-3.41,-39.0306,23.95,81,60,12.73,BR,1660179989
salinopolis,-0.6136,-47.3561,25.86,83,45,11.21,BR,1660179989
svetlogorsk,52.6333,29.7333,13.06,85,9,7.9,BY,1660179990
nagato,34.3833,131.2,29.69,72,100,8.75,JP,1660179991
moranbah,-22.0016,148.0466,20.26,56,33,15.9,AU,1660179992
changji,44.0167,87.3167,22.44,78,75,6.71,CN,1660179993
labuan,5.2767,115.2417,27.6,76,99,5.5,MY,1660179993
kalianget,-7.05,113.9333,28.15,72,69,5.97,ID,1660179994
manado,1.487,124.8455,30.43,70,20,2.3,ID,1660179995
kondinskoye,59.6481,67.41,14.14,67,56,6.55,RU,1660179996
alvand,36.3187,49.1678,14.69,84,19,4.07,IR,1660179998
ticuantepe,12.0226,-86.2049,24.14,89,95,9.15,NI,1660179999
vardo,70.3705,31.1107,13.99,94,100,9.22,NO,1660179847
bundaberg,-24.85,152.35,22.9,60,21,1.99,AU,1660180000
dzaoudzi,-12.7887,45.2699,23.94,83,20,10.36,YT,1660180001
san juan,-31.5375,-68.5364,12.62,28,34,8.3,AR,1660179999
rosarito,32.3333,-117.0333,33.56,59,25,9.46,MX,1660180002
ternate,0.8,127.4,28.26,73,17,3.87,ID,1660180003
ginda,30.6945,78.4932,18.24,99,100,3.42,IN,1660180004
viedma,-40.8135,-62.9967,12.61,51,100,17.76,AR,1660180005
moose factory,51.2585,-80.6094,11.61,84,100,11.36,CA,1660180005
hambantota,6.1241,81.1185,24.19,100,20,9.22,LK,1660180006
thompson,55.7435,-97.8558,19.53,47,2,2.98,CA,1660180007
zalantun,48.0,122.7167,18.0,65,98,10.04,CN,1660180008
taicheng,38.731,113.228,21.41,84,19,3.0,CN,1660180009
zabaykalsk,49.6333,117.3167,18.93,52,43,10.33,RU,1660180009
fonte boa,-2.4959,-66.2662,25.01,82,84,5.82,BR,1660180010
port hardy,50.6996,-127.4199,16.84,88,93,5.82,CA,1660180011
kashi,39.4547,75.9797,24.95,37,17,5.82,CN,1660180012
syracuse,37.0881,15.2792,21.84,66,4,2.62,IT,1660179869
kamenka,51.3223,42.7678,20.8,51,33,7.25,RU,1660180014
portoferraio,42.8115,10.3146,26.2,53,42,11.99,IT,1660180015
verkhnyaya inta,65.9811,60.3094,12.26,71,100,3.33,RU,1660180016
gat,31.61,34.7642,25.38,100,0,0.43,IL,1660179721
niquelandia,-14.4739,-48.4597,24.39,49,93,7.67,BR,1660180017
kaifeng,34.7911,114.3483,27.95,79,93,3.85,CN,1660180018
ous,60.9058,61.5186,15.31,98,100,5.14,RU,1660180019
kamaishi,39.2667,141.8833,28.01,75,100,7.94,JP,1660180019
tibati,6.4667,12.6333,18.46,99,100,2.26,CM,1660180020
jumla,29.2747,82.1838,16.56,96,100,1.97,NP,1660180021
aklavik,68.2191,-135.0107,15.91,38,96,14.29,CA,1660180022
puri,19.8,85.85,25.29,85,95,7.99,IN,1660180024
marshall,34.3834,-86.3333,25.17,85,0,5.75,US,1660179958
snezhnogorsk,69.1933,33.2531,15.88,90,100,21.41,RU,1660180025
sabinas hidalgo,26.5,-100.1667,34.74,30,21,13.53,MX,1660180026
pipar,26.3856,73.5378,29.2,70,76,13.53,IN,1660180027
rey bouba,8.6724,14.1786,21.81,99,100,5.26,CM,1660180028
nantucket,41.2835,-70.0995,23.06,89,100,6.91,US,1660180028
ulety,51.3572,112.4849,15.18,51,100,3.51,RU,1660180029
regen,48.9667,13.1333,16.95,69,12,1.01,DE,1660180030
sibu,2.3,111.8167,26.91,86,66,1.66,MY,1660180031
pila,53.1515,16.7378,13.55,82,89,4.65,PL,1660180032
raymond,43.9015,-70.4703,19.76,85,97,4.79,US,1660180032
banda aceh,5.5577,95.3222,26.58,72,99,6.96,ID,1660180033
rivne,50.6231,26.2274,13.76,89,84,6.08,UA,1660180034
thanh hoa,19.8,105.7667,24.57,96,100,5.55,VN,1660180035
gamba,-2.65,10.0,21.63,91,100,6.24,GA,1660180036
la asuncion,11.0333,-63.8628,26.52,82,100,7.74,VE,1660180037
pustoshka,56.3355,29.369,13.12,72,27,3.27,RU,1660180037
morgan city,29.6994,-91.2068,26.67,89,100,6.33,US,1660180038
velasco ibarra,-1.05,-79.6167,23.94,76,87,8.59,EC,1660180039
vung tau,10.346,107.0843,26.77,80,100,15.01,VN,1660180040
joshimath,30.5667,79.5667,20.95,99,100,5.91,IN,1660180041
elizabeth city,36.2946,-76.2511,27.01,73,75,4.61,US,1660180042
balaipungut,1.05,101.2833,25.81,86,18,3.22,ID,1660180042
paamiut,61.994,-49.6678,6.43,93,100,11.88,GL,1660180043
half moon bay,37.4636,-122.4286,27.54,70,0,24.16,US,1660180044
kruisfontein,-34.0033,24.7314,12.26,87,87,4.34,ZA,1660180045
dudinka,69.4058,86.1778,8.68,69,100,5.01,RU,1660180046
ponta do sol,32.6667,-17.1,21.51,86,25,5.88,PT,1660180046
marsa matruh,31.3525,27.2453,24.78,71,0,9.95,EG,1660180047
inuvik,68.3499,-133.7218,15.69,38,100,16.49,CA,1660180048
nabire,-3.3667,135.4833,25.17,86,100,3.96,ID,1660180049
tessalit,20.1986,1.0114,31.21,39,28,8.66,ML,1660180051
nerchinskiy zavod,51.3088,119.61,17.29,55,81,9.08,RU,1660180051
okha,53.5739,142.9478,16.46,79,100,13.15,RU,1660180052
raga,8.4596,25.678,20.95,98,100,5.03,SS,1660180053
dawlatabad,36.4141,64.9053,22.56,22,0,6.51,AF,1660180054
uvira,-3.4067,29.1458,23.32,67,38,3.42,CD,1660180055
kuhdasht,33.535,47.6061,27.47,25,0,3.6,IR,1660180056
camocim,-2.9022,-40.8411,23.56,82,77,8.66,BR,1660180057
nuuk,64.1835,-51.7216,6.34,93,75,9.22,GL,1660180058
inirida,3.8653,-67.9239,22.87,97,53,4.12,CO,1660180058
karlivka,49.4567,35.1295,19.31,73,100,10.42,UA,1660180059
bethune,50.5333,2.6333,21.14,57,5,4.85,FR,1660180060
pontianak,-0.0333,109.3333,23.99,88,40,3.44,ID,1660180061
tucurui,-3.7661,-49.6725,25.39,54,8,3.09,BR,1660179897
quatre cocos,-20.2078,57.7625,19.49,67,92,19.1,MU,1660180062
luangwa,-15.6167,30.4167,16.21,62,0,2.48,ZM,1660180063
nanzhou,29.3596,112.4024,31.7,58,45,11.5,CN,1660180064
salvador,13.8333,-88.9167,23.36,98,100,1.48,SV,1660180065
gorom-gorom,14.4439,-0.2361,29.99,59,19,11.81,BF,1660180065
inhambane,-23.865,35.3833,20.03,84,0,5.53,MZ,1660180066
alyangula,-13.8483,136.4192,25.92,72,44,9.53,AU,1660179984
gurupa,-1.405,-51.64,24.29,73,56,1.92,BR,1660180068
mogadishu,2.0371,45.3438,24.12,84,67,17.98,SO,1660180068
klaksvik,62.2266,-6.589,11.51,83,9,19.33,FO,1660180069
port lincoln,-34.7333,135.8667,10.97,86,100,25.26,AU,1660180070
bay roberts,47.5999,-53.2648,15.18,91,100,5.01,CA,1660180071
bluefield,37.2698,-81.2223,19.52,92,100,5.75,US,1660180072
cururupu,-1.8283,-44.8683,23.31,92,25,3.18,BR,1660180072
sinazongwe,-17.2614,27.4618,18.84,39,0,0.85,ZM,1660180073
sompeta,18.9333,84.6,26.95,83,100,8.05,IN,1660180074
tazovskiy,67.4667,78.7,8.19,92,100,8.39,RU,1660180075
lumphat,13.4878,106.9816,23.65,98,100,3.4,KH,1660180076
rundu,-17.9333,19.7667,12.73,17,0,4.05,NA,1660180077
safaga,26.7292,33.9365,31.68,40,1,14.99,EG,1660180078
cabinda,-5.55,12.2,20.62,94,76,6.87,AO,1660180079
amazar,53.858,120.875,16.73,75,97,4.72,RU,1660180079
constitucion,-35.3333,-72.4167,8.97,84,0,8.99,CL,1660180080
stephenville,32.2207,-98.2023,27.44,65,0,0.0,US,1660180081
karoi,-16.8099,29.6925,13.51,57,0,4.83,ZW,1660180082
zomin,39.9606,68.3958,19.45,38,2,0.67,UZ,1660179949
zhangye,38.9342,100.4517,26.04,59,40,2.42,CN,1660180084
ixtapa,20.7,-105.2,28.46,78,100,3.44,MX,1660180085
kiunga,-6.1219,141.2906,24.01,98,97,2.42,PG,1660180086
mudu,31.252,120.5118,33.05,60,85,4.14,CN,1660180087
noyabrsk,63.1994,75.4507,12.51,63,9,8.5,RU,1660180088
punta alta,-38.8759,-62.0736,9.38,69,4,12.86,AR,1660179987
manakara,-22.1333,48.0167,18.18,74,35,5.66,MG,1660180090
senno,59.5336,33.9167,11.2,80,96,3.83,RU,1660180091
pak chong,14.708,101.4161,26.56,87,100,6.31,TH,1660180091
batemans bay,-35.7167,150.1833,12.28,59,100,5.99,AU,1660180092
katangli,51.7102,143.2326,16.55,80,100,4.68,RU,1660180093
zhezkazgan,47.8043,67.7144,13.99,88,7,8.95,KZ,1660180094
saint-pierre,-21.3393,55.4781,18.84,63,40,11.5,RE,1660180095
jiblah,13.9216,44.1467,17.98,77,100,1.68,YE,1660180095
katastarion,37.8333,20.7667,21.94,73,5,1.79,GR,1660180096
wucheng,29.6008,118.175,32.36,58,64,2.13,CN,1660180097
baykit,61.67,96.37,14.22,80,100,4.36,RU,1660180098
presidente dutra,-5.29,-44.49,24.02,50,10,2.86,BR,1660180099
martil,35.6166,-5.2752,23.19,91,37,3.47,MA,1660180099
bandiagara,14.3501,-3.6104,28.25,65,15,4.74,ML,1660180101
lucea,18.451,-78.1736,27.7,79,51,10.49,JM,1660180102
kismayo,-0.3582,42.5454,23.93,83,100,18.03,SO,1660180102
waingapu,-9.6567,120.2641,28.2,63,90,3.53,ID,1660180082
kerman,30.2832,57.0788,25.79,25,0,4.16,IR,1660180104
mendi,-6.1761,143.6513,20.15,60,100,3.98,PG,1660180105
kapit,2.0167,112.9333,26.8,87,71,1.9,MY,1660180106
monster,52.0258,4.175,21.1,75,7,6.91,NL,1660180106
jinxiang,27.4327,120.6062,29.9,69,28,3.62,CN,1660180108
aksha,50.2814,113.2867,16.96,43,100,2.89,RU,1660180109
pestovo,58.5938,35.8024,10.92,78,11,3.11,RU,1660180109
adilcevaz,38.8039,42.7342,20.68,45,0,4.54,TR,1660180110
charlestown,-32.95,151.6667,14.85,79,100,1.99,AU,1660179849
matveyevka,52.15,56.1833,18.76,57,22,3.38,RU,1660180112
marawi,7.9986,124.2928,26.09,64,20,2.59,PH,1660180112
shambu,9.5667,37.1,10.46,97,100,0.96,ET,1660180114
saint-francois,46.4154,3.9054,14.82,72,0,1.14,FR,1660180110
sumbe,-11.2061,13.8437,19.25,95,36,8.01,AO,1660180115
debre tabor,11.85,38.0167,10.77,96,100,0.94,ET,1660180116
nome,64.5011,-165.4064,11.2,82,100,8.05,US,1660180117
golden,39.7555,-105.2211,32.79,28,5,3.0,US,1660180117
arlit,18.7369,7.3853,34.71,28,21,6.82,NE,1660180118
