City,lat,Lng,Max Temp,Humidity,Cloudiness,Wind Speed,Country,Date
east london,-33.0153,27.9116,58.14,82,20,8.05,ZA,1659760807
rikitea,-23.1203,-134.9692,70.25,60,79,17.76,PF,1659760808
ushuaia,-54.8,-68.3,33.46,86,0,2.3,AR,1659760714
capoterra,39.1763,8.9718,78.53,72,0,5.75,IT,1659760810
saskylakh,71.9167,114.0833,64.42,47,7,9.01,RU,1659760811
iqaluit,63.7506,-68.5145,44.33,93,100,2.3,CA,1659760811
prizren,42.2139,20.7397,72.93,45,0,0.92,XK,1659760812
new norfolk,-42.7826,147.0587,47.71,70,66,1.99,AU,1659760814
dikson,73.5069,80.5464,41.97,99,100,11.25,RU,1659760815
vrangel,42.7297,133.0839,75.9,86,61,4.56,RU,1659760815
westport,41.1415,-73.3579,79.02,87,0,6.91,US,1659760682
tarnow,50.0138,20.987,67.51,62,51,9.15,PL,1659760817
tilichiki,60.4667,166.1,55.22,88,95,3.85,RU,1659760818
vermilion,40.1667,-87.7506,76.6,93,2,4.16,US,1659760819
minab,27.1467,57.0801,91.72,75,0,0.0,IR,1659760820
busselton,-33.65,115.3333,58.89,62,99,14.18,AU,1659760821
taoudenni,22.6783,-3.9836,95.58,15,32,7.02,ML,1659760821
qaanaaq,77.484,-69.3632,36.07,64,31,4.05,GL,1659760822
mataura,-46.1927,168.8643,57.47,74,43,4.7,NZ,1659760823
tasiilaq,65.6145,-37.6368,42.96,73,97,3.18,GL,1659760824
menongue,-14.6585,17.691,52.52,47,0,4.14,AO,1659760825
port hedland,-20.3167,118.5667,80.65,18,0,12.66,AU,1659760826
yellowknife,62.456,-114.3525,59.52,58,40,5.75,CA,1659760542
touros,-5.1989,-35.4608,71.13,91,8,10.16,BR,1659760827
numan,9.4667,12.0333,71.22,96,97,5.79,NG,1659760828
cape town,-33.9258,18.4232,55.9,90,20,12.66,ZA,1659760743
bethel,41.3712,-73.414,77.9,92,0,0.0,US,1659760569
general roca,-39.0333,-67.5833,41.63,86,100,12.97,AR,1659760830
barrow,71.2906,-156.7887,39.22,93,100,8.05,US,1659760730
atuona,-9.8,-139.0333,77.56,72,10,15.77,PF,1659760832
aragarcas,-15.8975,-52.2508,70.74,37,21,0.89,BR,1659760681
saint-philippe,-21.3585,55.7679,69.39,64,7,9.69,RE,1659760833
provideniya,64.3833,-173.3,49.91,65,55,12.01,RU,1659760834
portland,45.5234,-122.6762,73.44,53,0,1.01,US,1659760757
hobart,-42.8794,147.3294,48.22,80,75,10.36,AU,1659760653
oudtshoorn,-33.5907,22.2014,53.96,91,7,1.41,ZA,1659760837
iquique,-20.2208,-70.1431,59.04,87,82,3.91,CL,1659760838
escanaba,45.7453,-87.0646,69.76,100,0,5.75,US,1659760839
kaeo,-35.1,173.7833,61.32,81,72,8.05,NZ,1659760840
comodoro rivadavia,-45.8667,-67.5,40.86,75,75,9.22,AR,1659760596
sakakah,29.9697,40.2064,87.37,23,13,0.51,SA,1659760842
kuna,43.4918,-116.4201,82.96,50,0,26.46,US,1659760842
flinders,-34.5833,150.8552,65.37,48,12,15.75,AU,1659760843
bluff,-46.6,168.3333,57.79,72,32,12.77,NZ,1659760844
cidreira,-30.1811,-50.2056,49.73,79,4,4.61,BR,1659760845
tatawin,32.9297,10.4518,75.88,50,0,3.67,TN,1659760846
scarborough,54.2797,-0.4044,49.91,84,63,1.01,GB,1659760815
quang ngai,15.1167,108.8,90.23,58,98,6.06,VN,1659760550
ilo,-17.6394,-71.3375,58.59,86,90,7.18,PE,1659760849
bud,39.447,-86.1758,75.22,95,17,4.79,US,1659760849
puerto ayora,-0.7393,-90.3518,69.55,93,77,7.0,EC,1659760851
uruzgan,32.8333,66.0,85.48,12,0,1.77,AF,1659760852
katsuura,35.1333,140.3,77.67,73,100,7.47,JP,1659760852
husavik,66.0449,-17.3389,50.13,73,70,7.94,IS,1659760853
asau,46.4333,26.4,65.28,70,2,2.86,RO,1659760854
avarua,-21.2078,-159.775,75.25,69,100,9.22,CK,1659760855
talnakh,69.4865,88.3972,61.21,60,62,8.93,RU,1659760856
albany,42.6001,-73.9662,73.92,89,79,2.95,US,1659760857
port elizabeth,-33.918,25.5701,53.89,85,0,8.05,ZA,1659760857
geraldton,-28.7667,114.6,63.01,59,4,12.66,AU,1659760858
camopi,3.1655,-52.3158,69.28,99,96,1.36,GF,1659760859
jamestown,42.097,-79.2353,73.71,74,0,5.75,US,1659760680
pevek,69.7008,170.3133,36.05,98,100,6.62,RU,1659760860
vaini,-21.2,-175.2,78.96,94,75,5.75,TO,1659760861
mahibadhoo,3.7833,72.9667,82.29,77,100,15.86,MV,1659760863
octeville,49.6261,-1.6435,59.49,72,93,9.22,FR,1659760863
valdosta,30.8327,-83.2785,79.99,83,40,4.61,US,1659760682
jalu,29.0331,21.5482,79.45,38,0,6.53,LY,1659760865
winnemucca,40.973,-117.7357,69.85,73,75,13.8,US,1659760866
pahalgam,34.0333,75.3333,66.16,82,88,6.08,IN,1659760866
punta arenas,-53.15,-70.9167,35.71,87,0,4.61,CL,1659760867
san policarpo,12.1791,125.5072,83.52,73,100,9.95,PH,1659760868
nikolskoye,59.7035,30.7861,72.81,78,83,7.29,RU,1659760869
the valley,18.217,-63.0578,82.09,78,64,22.19,AI,1659760870
presidencia roque saenz pena,-26.7852,-60.4388,49.91,69,33,5.79,AR,1659760870
hualmay,-11.0964,-77.6139,61.68,83,75,9.42,PE,1659760871
hermanus,-34.4187,19.2345,53.8,82,98,10.67,ZA,1659760872
codrington,-38.2667,141.9667,55.51,74,49,6.82,AU,1659760769
lake havasu city,34.4839,-114.3224,98.22,32,0,5.75,US,1659760873
ribeira grande,38.5167,-28.7,75.27,83,88,11.43,PT,1659760874
arman,59.7,150.1667,62.02,79,96,6.15,RU,1659760875
cherskiy,68.75,161.3,57.07,45,100,6.04,RU,1659760876
vestmannaeyjar,63.4427,-20.2734,53.4,93,100,8.21,IS,1659760877
fare,-16.7,-151.0167,76.91,79,62,25.08,PF,1659760878
kapaa,22.0752,-159.319,82.38,77,40,8.05,US,1659760878
airai,-8.9266,125.4092,75.69,50,42,3.87,TL,1659760879
butaritari,3.0707,172.7902,82.78,74,87,12.37,KI,1659760880
belousovka,50.1339,82.5239,67.05,52,0,2.24,KZ,1659760881
khatanga,71.9667,102.5,69.46,55,33,8.7,RU,1659760882
hasaki,35.7333,140.8333,81.28,70,100,7.23,JP,1659760754
grande prairie,55.1667,-118.8027,59.18,72,20,8.05,CA,1659760609
fairbanks,64.8378,-147.7164,56.08,82,75,8.05,US,1659760884
severo-yeniseyskiy,60.3725,93.0408,59.5,52,100,5.86,RU,1659760884
tateyama,34.9833,139.8667,78.73,71,100,6.73,JP,1659760769
kurmanayevka,52.5093,52.0675,76.95,47,4,8.08,RU,1659760886
verkhnyaya toyma,62.2349,44.9985,72.32,61,6,3.87,RU,1659760887
abonnema,4.7084,6.7931,73.69,87,99,4.09,NG,1659760887
stromness,58.965,-3.296,54.88,82,100,8.01,GB,1659760888
torbay,47.6666,-52.7314,66.58,91,100,13.8,CA,1659760889
caravelas,-17.7125,-39.2481,71.64,81,3,9.19,BR,1659760890
bathsheba,13.2167,-59.5167,83.01,90,20,16.11,BB,1659760891
gizo,-8.103,156.8419,83.82,72,99,9.51,SB,1659760891
severo-kurilsk,50.6789,156.125,59.18,75,96,6.29,RU,1659760893
ruston,32.5232,-92.6379,78.62,73,0,0.0,US,1659760894
jeremoabo,-10.075,-38.4808,59.65,98,18,2.51,BR,1659760895
ambilobe,-13.2,49.05,71.94,55,57,3.33,MG,1659760896
college,64.8569,-147.8028,56.07,82,75,8.05,US,1659760672
kavieng,-2.5744,150.7967,83.66,68,75,1.57,PG,1659760897
at-bashi,41.1702,75.8106,70.86,34,21,2.66,KG,1659760898
kumluca,36.3703,30.2869,83.79,68,0,1.48,TR,1659760899
saint george,37.1041,-113.5841,88.39,41,0,4.61,US,1659760900
lazaro cardenas,17.9583,-102.2,79.63,80,58,3.09,MX,1659760901
constitucion,-35.3333,-72.4167,52.5,94,100,0.96,CL,1659760902
lebu,-37.6167,-73.65,50.23,91,100,2.21,CL,1659760902
hilo,19.7297,-155.09,80.28,88,100,5.75,US,1659760611
salalah,17.0151,54.0924,77.09,100,100,6.91,OM,1659760699
udesti,47.5667,26.4167,70.81,85,0,4.61,RO,1659760905
gamba,-2.65,10.0,67.87,88,14,5.93,GA,1659760906
malusay,10.1439,123.2717,83.37,74,84,4.27,PH,1659760907
georgetown,5.4112,100.3354,87.75,74,20,7.0,MY,1659760802
coquimbo,-29.9533,-71.3436,51.53,87,0,5.75,CL,1659760908
khandyga,62.6667,135.6,74.75,50,100,7.74,RU,1659760909
pine bluff,34.2284,-92.0032,80.33,87,0,4.61,US,1659760911
nokia,61.4667,23.5,64.38,94,75,11.5,FI,1659760911
esperance,-33.8667,121.9,58.57,51,43,10.33,AU,1659760912
bela,25.9333,81.9833,96.03,47,93,5.06,IN,1659760914
mayna,54.1135,47.6231,72.37,56,22,5.64,RU,1659760914
mar del plata,-38.0023,-57.5575,42.1,90,0,4.61,AR,1659760864
nanortalik,60.1432,-45.2371,45.99,94,100,1.9,GL,1659760916
eyl,7.9803,49.8164,80.35,59,16,27.27,SO,1659760917
chuy,-33.6971,-53.4616,43.79,91,2,3.33,UY,1659760918
laviana,43.2333,-5.5333,65.7,96,99,2.51,ES,1659760919
port alfred,-33.5906,26.891,52.18,91,71,1.01,ZA,1659760920
arraial do cabo,-22.9661,-42.0278,69.15,79,47,15.93,BR,1659760920
vanimo,-2.6741,141.3028,83.35,69,100,5.14,PG,1659760921
lagoa,39.05,-27.9833,74.14,86,58,11.83,PT,1659760839
darnah,32.767,22.6367,78.64,74,0,18.1,LY,1659760923
dzhebariki-khaya,62.2167,135.8,76.37,43,100,12.35,RU,1659760923
bairiki,1.3292,172.9752,84.2,79,75,11.5,KI,1659760924
la ciotat,43.1748,5.6045,78.82,71,39,4.74,FR,1659760925
luderitz,-26.6481,15.1594,58.46,59,94,2.68,NA,1659760926
castro,-24.7911,-50.0119,54.68,91,35,9.22,BR,1659760927
hobyo,5.3505,48.5268,78.48,73,32,25.05,SO,1659760928
srednekolymsk,67.45,153.6833,65.48,45,100,3.76,RU,1659760929
agadez,19.75,10.25,88.09,19,34,6.93,NE,1659760930
bhola,22.6833,90.65,85.68,75,100,10.94,BD,1659760931
new waterford,40.8451,-80.6145,72.61,88,97,1.99,US,1659760931
strezhevoy,60.7333,77.5889,73.31,51,98,6.44,RU,1659760933
hamilton,39.1834,-84.5333,75.29,93,75,0.0,US,1659760685
ilulissat,69.2167,-51.1,44.62,100,100,4.61,GL,1659760934
dakar,14.6937,-17.4441,77.88,82,91,6.69,SN,1659760729
townsville,-19.25,146.8,77.88,69,25,12.66,AU,1659760935
vila do maio,15.1333,-23.2167,77.79,84,100,8.3,CV,1659760936
sao raimundo das mangabeiras,-7.0219,-45.4811,73.44,68,10,2.04,BR,1659760937
acapulco,16.8634,-99.8901,77.18,89,100,6.85,MX,1659760824
itarema,-2.9248,-39.9167,75.96,85,1,11.68,BR,1659760939
noyabrsk,63.1994,75.4507,67.41,55,99,9.1,RU,1659760939
dunedin,-45.8742,170.5036,55.8,70,100,1.41,NZ,1659760940
les mureaux,49.0,1.9167,59.38,61,28,6.58,FR,1659760941
beringovskiy,63.05,179.3167,53.17,75,84,11.07,RU,1659760942
okhotsk,59.3833,143.3,57.56,86,100,17.49,RU,1659760943
nouadhibou,20.931,-17.0347,70.57,90,6,8.77,MR,1659760943
kahului,20.8947,-156.47,87.82,67,20,13.8,US,1659760944
gillette,44.2911,-105.5022,66.94,59,100,7.0,US,1659760915
naze,28.3667,129.4833,88.72,73,86,3.18,JP,1659760946
carnarvon,-24.8667,113.6333,68.88,37,0,7.07,AU,1659760946
ajdabiya,30.7554,20.2263,76.42,70,0,5.95,LY,1659760947
abu dhabi,24.4667,54.3667,95.11,66,2,5.75,AE,1659760948
fernandina beach,30.6697,-81.4626,82.38,89,0,4.61,US,1659760798
ponta do sol,32.6667,-17.1,70.72,78,15,5.48,PT,1659760949
upernavik,72.7868,-56.1549,37.54,96,66,8.99,GL,1659760950
tuatapere,-46.1333,167.6833,53.02,74,21,5.55,NZ,1659760952
alice springs,-23.7,133.8833,65.75,24,0,11.5,AU,1659760953
juegang,32.3174,121.1855,97.92,57,80,0.43,CN,1659760954
florianopolis,-27.6146,-48.5012,58.69,78,100,8.05,BR,1659760955
ostrovnoy,68.0531,39.5131,66.02,81,100,17.72,RU,1659760955
shiyan,32.6475,110.7781,100.02,44,26,4.68,CN,1659760750
rocha,-34.4833,-54.3333,40.19,92,2,1.95,UY,1659760957
bredasdorp,-34.5322,20.0403,53.17,88,99,4.12,ZA,1659760958
hami,42.8,93.45,94.03,18,8,3.09,CN,1659760750
kodiak,57.79,-152.4072,63.91,48,20,8.05,US,1659760959
chandbali,20.7833,86.7667,91.04,58,99,10.96,IN,1659760960
bengkulu,-3.8004,102.2655,83.39,64,7,5.12,ID,1659760961
la ronge,55.1001,-105.2842,52.05,82,20,4.61,CA,1659760961
flin flon,54.7682,-101.865,46.58,91,93,8.99,CA,1659760962
hagere hiywet,8.9833,37.85,59.72,89,81,2.44,ET,1659760963
sitka,57.0531,-135.33,58.89,88,100,5.75,US,1659760964
kinsale,51.7075,-8.5306,51.17,87,20,9.22,IE,1659760965
puerto colombia,10.9878,-74.9547,80.69,86,100,17.0,CO,1659760965
juxtlahuaca,17.4294,-99.1467,69.85,99,100,3.87,MX,1659760966
maniitsoq,65.4167,-52.9,41.4,97,100,6.64,GL,1659760967
jutai,-5.1833,-68.9,69.85,96,100,1.3,BR,1659760968
kattivakkam,13.2167,80.3167,86.09,73,100,17.36,IN,1659760969
kovur,14.4833,79.9833,87.03,57,96,17.87,IN,1659760969
sao joao da barra,-21.6403,-41.0511,68.99,82,1,15.21,BR,1659760912
tuktoyaktuk,69.4541,-133.0374,69.8,60,75,4.61,CA,1659760971
thompson,55.7435,-97.8558,46.56,93,100,13.8,CA,1659760935
bolu,40.6667,31.5833,68.14,80,25,3.58,TR,1659760973
nortelandia,-14.4547,-56.8028,71.6,41,79,3.18,BR,1659760974
bara,10.3744,10.7288,70.93,96,100,6.69,NG,1659760974
rudbar,30.15,62.6,91.63,15,1,14.43,AF,1659760976
ishigaki,24.3448,124.1572,89.73,70,75,9.22,JP,1659760977
port augusta,-32.5,137.7667,60.66,43,29,20.2,AU,1659760977
mahebourg,-20.4081,57.7,71.26,88,20,8.05,MU,1659760840
pochutla,15.7432,-96.4661,76.82,92,100,3.11,MX,1659760979
adrar,20.5022,-10.0711,91.15,31,38,12.24,MR,1659760980
lillooet,50.6856,-121.942,58.96,71,58,1.03,CA,1659760980
manta,-0.95,-80.7333,71.38,88,75,9.22,EC,1659760981
manggar,-2.8833,108.2667,83.44,67,100,8.61,ID,1659760982
laichingen,48.4894,9.6861,58.19,100,100,5.75,DE,1659760983
enugu,6.4402,7.4943,74.59,94,75,3.44,NG,1659760800
gorontalo,0.5412,123.0595,77.59,89,100,3.8,ID,1659760984
bambanglipuro,-7.95,110.2833,82.92,66,18,10.83,ID,1659760985
kaitangata,-46.2817,169.8464,53.74,76,91,5.99,NZ,1659760986
grand gaube,-20.0064,57.6608,71.38,71,7,5.99,MU,1659760987
guerrero negro,27.9769,-114.0611,71.31,87,16,12.73,MX,1659760988
aviles,43.5547,-5.9248,66.76,80,75,4.61,ES,1659760989
kargasok,59.0556,80.8572,74.08,53,43,7.4,RU,1659760990
meulaboh,4.1363,96.1285,84.67,63,85,2.59,ID,1659760991
mana,5.6592,-53.7767,76.37,84,13,8.19,GF,1659760991
roald,62.5833,6.1333,54.75,93,75,9.22,NO,1659760987
linxia,35.6003,103.2064,85.87,44,26,4.21,CN,1659760749
pacifica,37.6138,-122.4869,66.6,84,75,16.11,US,1659760993
tiksi,71.6872,128.8694,41.4,81,100,13.2,RU,1659760994
singaraja,-8.112,115.0882,85.55,55,55,3.49,ID,1659760995
nome,64.5011,-165.4064,48.27,76,100,14.97,US,1659760996
brae,60.3964,-1.353,51.39,88,9,10.63,GB,1659760997
zabaykalsk,49.6333,117.3167,69.67,40,100,17.43,RU,1659760998
ampanihy,-24.7,44.75,65.52,76,6,4.68,MG,1659760999
mayo,38.8876,-76.5119,75.31,94,0,1.99,US,1659760908
naron,43.5167,-8.1528,67.05,77,72,15.77,ES,1659761000
muzaffarnagar,29.4667,77.6833,89.56,62,13,6.24,IN,1659761001
pisco,-13.7,-76.2167,57.25,88,40,3.44,PE,1659761002
santa maria,-29.6842,-53.8069,44.51,94,1,4.88,BR,1659760949
nioro,13.35,-15.75,74.23,96,100,3.13,GM,1659761003
novosheshminsk,55.0651,51.2338,74.8,53,36,4.25,RU,1659761005
viedma,-40.8135,-62.9967,42.84,68,87,8.75,AR,1659761005
pangnirtung,66.1451,-65.7125,42.35,95,100,0.43,CA,1659761006
moron,-34.6534,-58.6198,55.15,81,1,4.54,AR,1659761007
lasa,46.6166,10.7002,65.28,85,48,4.45,IT,1659761008
avera,33.194,-82.5271,77.56,84,100,6.29,US,1659761009
belaya gora,68.5333,146.4167,63.81,39,100,1.66,RU,1659761009
los llanos de aridane,28.6585,-17.9182,69.55,78,100,16.11,ES,1659761010
koumac,-20.5667,164.2833,76.6,77,39,6.89,NC,1659761012
umm kaddadah,13.6017,26.6876,81.77,62,100,10.78,SD,1659761012
prince rupert,54.3161,-130.3201,60.49,84,20,11.5,CA,1659761013
bloomington,44.8408,-93.2983,80.92,74,40,11.5,US,1659760954
tongren,27.7172,109.1853,89.24,65,51,5.95,CN,1659761015
tezu,27.9167,96.1667,92.39,63,34,3.42,IN,1659761015
waipawa,-41.4122,175.5153,55.31,75,100,15.55,NZ,1659761016
klaksvik,62.2266,-6.589,50.92,85,70,9.35,FO,1659761017
salamanca,40.8333,-6.0,61.99,69,31,5.55,ES,1659761018
helena,46.5927,-112.0361,70.79,30,0,16.11,US,1659760859
shingu,33.7333,135.9833,83.52,76,78,6.49,JP,1659761020
roura,4.7263,-52.3274,81.97,94,20,0.0,GF,1659761021
clyde river,70.4692,-68.5914,37.63,93,75,18.41,CA,1659760758
de aar,-30.6497,24.0123,47.23,50,66,3.22,ZA,1659761022
goderich,43.7501,-81.7165,75.52,88,0,4.61,CA,1659760986
banjar,-8.19,114.9675,88.38,50,63,1.88,ID,1659761024
mogadishu,2.0371,45.3438,76.87,78,40,16.11,SO,1659761025
dinghai,26.2847,119.7936,94.12,76,74,9.01,CN,1659761025
oranjemund,-28.55,16.4333,53.24,83,56,1.5,NA,1659761026
areia branca,-4.9561,-37.1369,72.45,79,5,15.3,BR,1659761027
bubaque,11.2833,-15.8333,79.56,81,100,12.41,GW,1659761028
hadrut,39.52,47.0318,77.67,36,0,6.46,AZ,1659761029
lompoc,34.6391,-120.4579,64.02,87,100,11.5,US,1659761029
puerto madryn,-42.7692,-65.0385,38.89,80,41,12.44,AR,1659760867
muzhi,65.3667,64.6667,73.02,54,47,13.89,RU,1659761031
marawi,7.9986,124.2928,77.99,81,70,2.62,PH,1659761032
norman wells,65.282,-126.8329,75.24,43,75,9.22,CA,1659760769
fortuna,40.5982,-124.1573,62.92,84,33,1.48,US,1659761033
turkistan,43.0,68.0,87.49,27,4,8.9,KZ,1659761034
trebukhiv,50.4843,30.903,68.92,85,4,4.9,UA,1659761035
nuuk,64.1835,-51.7216,43.41,100,100,6.91,GL,1659760852
san patricio,28.017,-97.5169,84.06,69,100,12.59,US,1659761036
shieli,44.1667,66.75,84.13,37,0,8.61,KZ,1659761038
citluk,43.2286,17.7008,65.97,72,0,2.3,BA,1659761039
oussouye,12.485,-16.5469,76.82,89,100,7.4,SN,1659760833
tan an,10.5333,106.4167,80.62,72,100,12.06,VN,1659760909
rundu,-17.9333,19.7667,55.15,44,0,4.72,NA,1659761041
naryan-mar,67.6713,53.087,69.3,61,96,11.81,RU,1659761042
olafsvik,64.8945,-23.7142,52.05,94,100,8.75,IS,1659760835
saint simons,31.1352,-81.3901,84.24,78,20,9.22,US,1659761044
doka,13.5167,35.7667,69.22,96,100,9.78,SD,1659761044
dire,12.2833,-10.9667,72.59,99,94,3.56,ML,1659761045
tanout,14.9709,8.8879,80.02,62,38,12.62,NE,1659761046
surt,31.2089,16.5887,79.92,66,0,4.88,LY,1659761047
vila velha,-20.3297,-40.2925,73.94,82,75,5.01,BR,1659761048
sola,-13.8833,167.55,80.78,77,92,18.16,VU,1659761049
souillac,-20.5167,57.5167,66.58,88,20,8.05,MU,1659761049
poykovskiy,61.2333,73.3333,71.89,73,40,6.71,RU,1659761050
yining,29.0361,114.5636,97.93,42,29,5.68,CN,1659761051
sistranda,63.7256,8.834,49.96,84,96,20.98,NO,1659761052
ferrol,43.4832,-8.2369,66.72,81,68,16.64,ES,1659761053
brookings,44.3114,-96.7984,80.6,69,0,17.27,US,1659760934
berlevag,70.8578,29.0864,55.4,76,96,8.05,NO,1659761054
nhulunbuy,-12.2333,136.7667,86.61,54,58,13.8,AU,1659761055
lima,-12.0432,-77.0282,57.45,88,100,11.5,PE,1659761056
fort nelson,58.8053,-122.7002,69.39,56,75,2.3,CA,1659761056
tsagan aman,47.5639,46.7218,85.41,22,99,14.58,RU,1659761058
ayagoz,47.9714,80.4392,73.09,23,0,10.92,KZ,1659760879
wanning,18.8003,110.3967,85.32,77,100,8.93,CN,1659761059
uyovu,-3.2833,31.5258,67.51,48,87,6.85,TZ,1659761060
tallahassee,30.4383,-84.2807,77.0,94,0,5.75,US,1659760832
tadine,-21.55,167.8833,76.26,76,36,8.08,NC,1659761061
cartagena,10.3997,-75.5144,78.42,89,40,4.61,CO,1659760881
sao filipe,14.8961,-24.4956,77.25,82,88,5.64,CV,1659761063
vao,-22.6667,167.4833,73.53,81,14,9.6,NC,1659761064
sorland,67.667,12.6934,51.66,90,95,26.96,NO,1659761064
santa cruz,-17.8,-63.1667,65.66,72,75,3.44,BO,1659760975
corn island,12.1694,-83.0418,79.92,82,100,19.26,NI,1659761066
vila franca do campo,37.7167,-25.4333,70.21,91,100,7.36,PT,1659761067
kiunga,-6.1219,141.2906,84.58,79,90,1.43,PG,1659761067
aksu,41.1231,80.2644,67.26,72,100,7.29,CN,1659761068
magadan,59.5667,150.8,61.54,81,91,9.13,RU,1659761069
ngaoundere,7.3167,13.5833,63.18,97,100,2.66,CM,1659761070
baturaja,-4.1333,104.1667,89.13,55,31,3.58,ID,1659761071
paamiut,61.994,-49.6678,44.26,97,100,2.3,GL,1659761071
hithadhoo,-0.6,73.0833,82.4,72,81,10.49,MV,1659761072
ville-marie,47.3335,-79.433,57.61,71,1,4.81,CA,1659760981
trincomalee,8.5711,81.2335,84.69,66,100,20.94,LK,1659761074
isla vista,34.4133,-119.861,74.91,70,0,3.44,US,1659761075
gisborne,-38.6533,178.0042,59.31,57,89,9.17,NZ,1659761076
les cayes,18.2,-73.75,78.67,81,52,0.38,HT,1659761077
labuhan,-6.8844,112.2051,87.73,51,37,1.19,ID,1659761078
yerbogachen,61.2767,108.0108,48.33,88,100,8.05,RU,1659761079
malindi,-3.2175,40.1191,75.67,64,7,16.02,KE,1659761080
yeppoon,-23.1333,150.7333,74.98,78,63,2.59,AU,1659761080
sinnamary,5.3833,-52.95,76.42,85,3,8.81,GF,1659761081
puliyur,10.6333,78.8333,87.6,55,40,11.5,IN,1659761049
komsomolskiy,40.4272,71.7189,91.81,19,0,7.74,UZ,1659761083
gull lake,50.1001,-108.4847,48.87,77,13,5.01,CA,1659760937
palmer,42.1584,-72.3287,76.55,79,0,4.61,US,1659760806
villa maria,-32.4075,-63.2402,45.46,67,6,8.08,AR,1659761085
marovoay,-16.1,46.6333,70.83,51,0,4.74,MG,1659761086
gazanjyk,39.2446,55.5154,93.24,17,23,12.73,TM,1659761087
kununurra,-15.7667,128.7333,89.58,19,98,10.36,AU,1659761088
canyon lake,29.8752,-98.2625,85.19,60,76,5.01,US,1659761088
kruisfontein,-34.0033,24.7314,49.57,84,45,6.73,ZA,1659761089
kothapet,19.3333,79.4833,83.46,78,92,6.42,IN,1659761090
moquegua,-17.1956,-70.9353,61.52,42,90,1.43,PE,1659761091
taltal,-25.4,-70.4833,52.03,87,28,3.51,CL,1659761092
chisec,15.8167,-90.2833,69.69,95,87,3.22,GT,1659761093
ochakiv,46.6128,31.5498,73.81,73,23,12.91,UA,1659761094
deyang,31.1302,104.382,89.78,60,3,4.43,CN,1659761095
alugan,12.2188,125.4808,83.53,73,100,9.33,PH,1659761095
zhanakorgan,43.9098,67.2495,84.34,34,0,7.47,KZ,1659761096
daigo,36.7667,140.35,77.09,74,100,5.3,JP,1659761098
chenghai,23.4632,116.768,89.51,66,75,4.47,CN,1659761098
mitsamiouli,-11.3847,43.2844,74.48,66,5,2.89,KM,1659761099
lundazi,-12.2929,33.1782,59.11,67,6,5.35,ZM,1659761100
eureka,40.8021,-124.1637,63.19,86,34,1.99,US,1659761101
aguimes,27.9054,-15.4461,68.63,78,20,26.46,ES,1659761102
narsaq,60.9167,-46.05,44.82,94,100,3.71,GL,1659761102
ahipara,-35.1667,173.1667,58.77,84,76,8.12,NZ,1659761103
along,28.1667,94.7667,93.81,52,36,2.19,IN,1659761104
walvis bay,-22.9575,14.5053,52.09,93,100,5.75,NA,1659760904
cockburn town,21.4612,-71.1419,81.66,76,20,21.7,TC,1659761106
morristown,36.214,-83.2949,70.9,81,75,1.99,US,1659761097
palu,-0.8917,119.8707,85.15,75,76,3.58,ID,1659761107
matamoros,25.5333,-103.25,87.91,23,40,16.11,MX,1659761027
okha,53.5739,142.9478,57.07,82,66,22.95,RU,1659761109
estelle,29.8458,-90.1067,80.01,83,40,3.44,US,1659761110
trairi,-3.2778,-39.2689,75.24,88,1,9.33,BR,1659760942
turangi,-39.0,175.9333,46.17,73,99,1.32,NZ,1659761111
svetlogorsk,52.6333,29.7333,69.24,75,2,5.57,BY,1659761112
havre-saint-pierre,50.2334,-63.5986,51.8,93,0,0.0,CA,1659761113
henties bay,-22.116,14.2845,56.03,82,10,3.56,NA,1659761113
baruun-urt,46.6806,113.2792,67.89,69,98,14.23,MN,1659761114
bethanien,-26.502,17.1583,56.44,31,100,6.42,NA,1659761115
ihosy,-22.4,46.1167,62.35,59,0,1.45,MG,1659761116
port lincoln,-34.7333,135.8667,56.75,63,58,15.61,AU,1659761117
turukhansk,65.8167,87.9833,70.47,50,43,8.75,RU,1659761118
hambantota,6.1241,81.1185,84.54,84,100,16.11,LK,1659761118
portobelo,9.55,-79.65,78.12,89,99,6.33,PA,1659761119
paciran,-6.8767,112.3761,86.41,56,44,3.2,ID,1659761120
lavrentiya,65.5833,-171.0,47.34,67,67,8.23,RU,1659761121
maraba,-5.3686,-49.1178,78.98,89,0,3.44,BR,1659761122
ginda,30.6945,78.4932,75.94,74,32,5.01,IN,1659761123
campos novos,-27.4017,-51.225,43.41,97,0,3.42,BR,1659761123
pingdu,36.7844,119.9464,93.9,60,71,5.21,CN,1659761124
zolotyy potik,48.9095,25.3393,69.53,67,0,5.03,UA,1659761125
christchurch,-43.5333,172.6333,55.9,91,100,3.44,NZ,1659760846
broome,42.2506,-75.833,72.19,95,0,0.0,US,1659761127
barra do corda,-5.5,-45.25,70.38,93,14,2.98,BR,1659761127
formosa,-26.1775,-58.1781,51.78,87,0,2.3,AR,1659761128
contamana,-7.3333,-75.0167,71.55,99,100,0.74,PE,1659761129
pedernales,18.0384,-71.744,80.74,71,13,4.72,DO,1659761130
igrim,63.1906,64.4162,76.98,43,48,5.64,RU,1659761131
juneau,58.3019,-134.4197,56.21,97,100,17.27,US,1659761117
valle de allende,26.9333,-105.4,77.36,36,93,16.17,MX,1659761132
broken hill,-31.95,141.4333,59.72,33,1,21.88,AU,1659761133
male,4.1748,73.5089,84.15,84,75,13.8,MV,1659761134
murgab,37.4966,61.9714,84.07,37,0,4.61,TM,1659761135
ozinki,51.1786,49.6769,80.73,34,46,13.8,RU,1659761136
baykit,61.67,96.37,60.67,54,100,5.5,RU,1659761136
chiang khong,20.2613,100.4046,78.28,96,91,3.65,TH,1659761137
ancud,-41.8697,-73.8203,40.23,88,6,6.8,CL,1659761138
longyearbyen,78.2186,15.6401,49.84,76,75,4.61,SJ,1659760859
velsk,61.0701,42.0983,74.08,56,1,4.09,RU,1659761139
saint-leu,-21.15,55.2833,72.43,65,22,2.15,RE,1659761140
yar-sale,66.8333,70.8333,68.67,58,63,13.0,RU,1659761141
umm lajj,25.0213,37.2685,87.57,68,57,0.81,SA,1659761142
vila,42.0304,-8.1588,56.28,88,45,4.52,PT,1659761143
marsa matruh,31.3525,27.2453,73.6,83,40,6.91,EG,1659761144
khipro,25.8285,69.3772,88.83,60,100,3.4,PK,1659761145
fagersta,60.0042,15.7932,56.98,76,11,7.96,SE,1659761146
calatayud,41.3535,-1.6432,66.6,78,38,3.6,ES,1659761146
buala,-8.145,159.5921,85.69,65,91,6.85,SB,1659761148
andilamena,-17.0167,48.5833,56.26,83,39,4.03,MG,1659761149
rio grande,-32.035,-52.0986,37.94,85,2,5.79,BR,1659761149
zamora,-4.0692,-78.9567,66.94,98,100,0.98,EC,1659761150
sosnovo-ozerskoye,52.5249,111.5418,63.43,41,44,16.93,RU,1659761151
manoel urbano,-8.8389,-69.2597,71.11,98,100,1.79,BR,1659761152
ust-omchug,61.15,149.6333,64.9,57,77,14.29,RU,1659761153
butajira,8.1167,38.3667,60.1,83,87,3.53,ET,1659761153
mabiton,12.8334,123.2612,77.59,85,100,3.29,PH,1659761154
guarapari,-20.6667,-40.4975,73.89,83,30,15.19,BR,1659761156
dhidhdhoo,6.8833,73.1,80.62,85,100,16.78,MV,1659761113
svarstad,59.399,9.9698,56.37,63,47,4.76,NO,1659761157
honningsvag,70.9821,25.9704,53.35,71,2,14.97,NO,1659761158
makat,47.6469,53.3463,87.55,19,51,14.2,KZ,1659761159
svetlyy,54.675,20.1347,64.96,76,100,15.14,RU,1659761160
bon air,37.5249,-77.5578,71.78,88,100,8.05,US,1659760883
saint-francois,46.4154,3.9054,63.84,68,0,5.75,FR,1659761161
egvekinot,66.3167,-179.1667,51.8,47,75,22.12,RU,1659761060
thunder bay,48.4001,-89.3168,60.71,94,100,4.61,CA,1659761088
manati,18.4275,-66.4921,82.67,92,78,10.31,PR,1659761164
hay river,60.8156,-115.7999,62.58,48,75,9.22,CA,1659761165
benguela,-12.5763,13.4055,64.69,88,22,2.39,AO,1659761166
yumen,40.2833,97.2,85.14,23,99,19.66,CN,1659761167
deputatskiy,69.3,139.9,51.28,74,100,4.76,RU,1659761167
yarmouth,41.7057,-70.2286,78.85,87,0,5.75,US,1659761168
saldanha,-33.0117,17.9442,50.05,90,1,11.63,ZA,1659761169
faanui,-16.4833,-151.75,77.14,79,74,24.65,PF,1659761170
mangrol,21.1167,70.1167,83.12,75,100,2.82,IN,1659761171
port-gentil,-0.7193,8.7815,73.63,81,100,12.5,GA,1659761171
harper,4.375,-7.7169,73.94,73,77,3.89,LR,1659761172
tignere,7.3667,12.65,63.23,97,100,1.32,CM,1659761174
sisimiut,66.9395,-53.6735,41.27,94,99,13.29,GL,1659761174
shetpe,44.1667,52.1167,83.77,26,100,9.01,KZ,1659761175
straumen,63.8709,11.2999,50.0,89,80,6.69,NO,1659761176
almaznyy,48.0448,40.045,77.2,46,83,6.98,RU,1659761177
zhongshu,24.5167,103.7667,68.95,88,100,3.67,CN,1659761178
kenai,60.5544,-151.2583,59.09,79,0,24.16,US,1659761178
akyab,20.15,92.9,83.32,81,99,17.45,MM,1659761179
hope,33.6671,-93.5916,84.25,70,10,6.62,US,1659761180
sangar,63.9242,127.4739,57.79,97,100,3.8,RU,1659761181
bosaso,11.2842,49.1816,93.18,33,0,14.97,SO,1659761182
chokurdakh,70.6333,147.9167,60.31,42,16,7.23,RU,1659761183
hof,50.3167,11.9167,55.45,79,100,11.99,DE,1659761183
dudinka,69.4058,86.1778,61.63,82,94,8.84,RU,1659761184
shaoguan,24.8,113.5833,92.21,56,75,2.77,CN,1659761185
victoria,22.2855,114.1577,88.97,86,75,5.01,HK,1659760902
batagay,67.6333,134.6333,50.79,90,100,4.27,RU,1659761187
esso,55.9333,158.7,74.98,53,22,4.21,RU,1659761188
sarabia,20.5092,-101.0925,60.17,68,45,5.37,MX,1659761189
edd,13.9297,41.6925,89.26,62,89,7.54,ER,1659761190
totness,5.8833,-56.3167,77.65,86,10,9.15,SR,1659761190
najran,17.4924,44.1277,77.65,52,93,7.43,SA,1659760931
quelimane,-17.8786,36.8883,58.95,100,0,2.3,MZ,1659761192
finnsnes,69.2296,17.9811,45.21,67,20,3.4,NO,1659761193
karibib,-21.9333,15.8333,59.74,27,27,4.68,NA,1659761193
ixtapa,20.7,-105.2,79.83,89,100,5.75,MX,1659761194
lorengau,-2.0226,147.2712,84.4,69,42,5.97,PG,1659761195
primorsko,42.2667,27.7667,72.07,72,0,4.25,BG,1659761196
lake city,30.1897,-82.6393,78.51,88,0,5.75,US,1659760958
tahe,52.3333,124.7333,74.03,40,77,13.31,CN,1659761197
san quintin,30.4833,-115.95,70.72,88,19,13.29,MX,1659761199
benidorm,38.5382,-0.131,80.74,42,0,3.0,ES,1659761199
jimma,7.6667,36.8333,61.03,94,99,0.63,ET,1659761200
kushiro,42.975,144.3747,67.15,77,75,8.05,JP,1659761201
canete,-37.8,-73.4,48.88,97,100,1.45,CL,1659761202
petropavlovsk-kamchatskiy,53.0452,158.6483,66.79,73,20,15.66,RU,1659761203
jasper,37.2001,-94.3502,85.68,72,0,9.22,US,1659761203
celestun,20.8667,-90.4,78.55,79,34,10.74,MX,1659761204
bambous virieux,-20.3428,57.7575,72.21,88,20,8.05,MU,1659761205
mozhaysk,55.5019,36.0272,71.73,66,11,6.15,RU,1659761206
huari,-9.3333,-77.2333,43.2,93,100,1.7,PE,1659761207
oxford,51.7522,-1.256,51.49,85,40,4.16,GB,1659761207
itapaci,-14.9508,-49.5494,70.18,46,80,3.2,BR,1659761208
richards bay,-28.783,32.0377,62.04,90,0,5.32,ZA,1659761210
domoni,-12.2569,44.5319,75.02,70,3,9.06,KM,1659761210
tumen,42.9661,129.8425,91.15,42,57,6.08,CN,1659761211
alofi,-19.0595,-169.9187,76.89,78,100,12.66,NU,1659761212
sayyan,15.1718,44.3244,62.62,65,86,3.31,YE,1659761213
manturovo,58.3353,44.7619,73.65,59,14,2.24,RU,1659761214
neryungri,56.6709,124.6491,47.64,96,100,15.41,RU,1659761214
aklavik,68.2191,-135.0107,66.51,56,96,13.24,CA,1659760939
road town,18.4167,-64.6167,82.49,76,40,21.23,VG,1659761216
port moresby,-9.4431,147.1797,87.22,66,40,14.97,PG,1659761082
la asuncion,11.0333,-63.8628,80.33,94,32,11.5,VE,1659761217
mayumba,-3.432,10.6554,67.89,91,22,4.72,GA,1659761218
sebinkarahisar,40.2883,38.4236,64.99,64,8,0.96,TR,1659761219
elizabethtown,37.694,-85.8591,75.29,94,40,5.75,US,1659761220
khasan,42.4308,130.6434,80.08,77,73,5.93,RU,1659761220
florence,43.7667,11.25,78.24,81,0,2.3,IT,1659761142
dingle,10.9995,122.6711,84.99,72,100,4.36,PH,1659761222
kuytun,54.3419,101.5036,55.6,63,100,11.36,RU,1659761223
aktau,43.65,51.2,84.78,39,100,12.62,KZ,1659761223
petukhovo,55.0692,67.9019,74.48,49,8,6.11,RU,1659761224
cabo san lucas,22.8909,-109.9124,87.62,71,72,7.23,MX,1659761098
sondrio,46.169,9.8692,73.08,95,26,7.2,IT,1659761226
zhigansk,66.7697,123.3711,55.24,99,100,11.5,RU,1659761226
sekovici,44.2986,18.8528,55.85,52,0,3.62,BA,1659761227
lincoln,40.8,-96.667,84.11,79,0,13.8,US,1659761054
orange,33.7,-117.7675,82.24,77,20,4.61,US,1659761229
oxelosund,58.6706,17.1015,53.98,87,0,9.22,SE,1659761229
tecoanapa,16.5167,-98.75,77.25,89,100,5.46,MX,1659761230
saint anthony,45.0205,-93.218,80.53,71,0,12.66,US,1659761231
tenosique,17.4833,-91.4333,72.75,89,99,5.97,MX,1659761232
tura,25.5198,90.2201,75.83,95,99,4.47,IN,1659761233
amapa,1.0,-52.0,69.22,99,17,1.9,BR,1659761228
sheltozero,61.3667,35.3667,70.39,68,1,8.99,RU,1659761234
cayenne,4.9333,-52.3333,82.09,1,20,0.0,GF,1659761235
humaita,-7.5061,-63.0208,75.52,80,69,1.86,BR,1659761236
bereznik,62.8551,42.7072,73.2,59,6,5.88,RU,1659761237
vostok,46.4856,135.8833,74.93,75,100,6.44,RU,1659761238
wembley,-31.9333,115.8,63.79,66,40,13.8,AU,1659761239
wawa,9.9022,4.4192,71.69,86,100,3.36,NG,1659760981
kifri,34.6959,44.9661,104.27,14,0,7.38,IQ,1659761240
milton,34.1322,-84.3007,76.12,95,75,4.23,US,1659761215
atambua,-9.1061,124.8925,82.18,60,50,3.71,ID,1659761242
calolbon,13.596,124.0991,81.52,78,100,10.96,PH,1659761243
ken caryl,39.5773,-105.1169,79.11,48,94,3.0,US,1659761244
amuntai,-2.4177,115.2494,89.89,45,99,3.65,ID,1659761245
sao sebastiao,-23.76,-45.4097,63.46,89,26,2.17,BR,1659761246
hirara,24.8,125.2833,89.87,70,75,12.66,JP,1659761247
dargaville,-35.9333,173.8833,57.79,83,90,7.45,NZ,1659761248
bereda,43.2686,-7.5406,60.58,100,100,7.25,ES,1659761249
sangmelima,2.9333,11.9833,66.94,98,92,2.24,CM,1659761250
jumla,29.2747,82.1838,72.19,73,100,4.41,NP,1659761251
guanica,17.9716,-66.908,81.05,82,85,5.48,PR,1659761251
banda aceh,5.5577,95.3222,86.49,61,99,11.59,ID,1659761252
lesogorsk,56.0458,99.5136,52.36,85,100,8.59,RU,1659761253
olinda,-8.0089,-34.8553,73.13,83,40,1.14,BR,1659761254
bilma,18.6853,12.9164,87.48,41,60,12.28,NE,1659761255
necochea,-38.5473,-58.7368,40.35,79,71,7.2,AR,1659761255
puerto escondido,15.85,-97.0667,78.22,85,100,4.14,MX,1659761177
altrincham,53.3875,-2.3485,51.89,90,48,3.44,GB,1659761257
bongandanga,1.5,21.05,70.27,97,78,2.95,CD,1659761258
kudahuvadhoo,2.6708,72.8944,82.56,74,100,13.87,MV,1659761258
ust-ishim,57.6935,71.1665,76.46,48,85,5.64,RU,1659761259
poum,-20.2333,164.0167,76.01,81,18,10.18,NC,1659761260
kungurtug,50.5994,97.5228,63.05,32,11,8.63,RU,1659761261
cortazar,20.4833,-100.9333,60.4,66,38,6.26,MX,1659761262
atakpame,7.5333,1.1333,64.76,93,70,3.13,TG,1659761262
qarqin,37.4185,66.0436,94.93,15,0,11.03,AF,1659761263
changli,39.7042,119.1506,93.33,60,82,8.32,CN,1659761264
kalispell,48.1958,-114.3129,68.04,40,0,17.27,US,1659761265
atlantic city,39.3643,-74.4229,79.99,82,0,4.61,US,1659761259
